{"type": "FeatureCollection",
"features": [

{
"geometry": {
	"coordinates": [ 158.4535, 53.1702],
	"type": "Point"
},
"properties": {
	"abbrev": "UHPP",
	"featureclass": "Airport",
	"gps_code": "UHPP",
	"iata_code": "UHPP",
	"location": "terminal",
	"name": "Елизово",
	"natlscale": 8,
	"scalerank": 10,
	"type": "big",
	"wikipedia": "",
	"addition": {
   	"title": "Елизово - UHPP - ГА",
       "id": "263",
       "icon": "ls-green-24.png"
	}
}},

{
"geometry": {
	"coordinates": [ 158.7221, 53.0263],
	"type": "Point"
},
"properties": {
	"abbrev": "UHPH",
	"featureclass": "Airport",
	"gps_code": "UHPH",
	"iata_code": "UHPH",
	"location": "terminal",
	"name": "Халактырка",
	"natlscale": 8,
	"scalerank": 10,
	"type": "small",
	"wikipedia": "",
	"addition": {
   	"title": "Халактырка - UHPH - ГА",
       "id": "420",
       "icon": "ls-green-24.png"
	}
}},

{
"geometry": {
	"coordinates": [ 158.5506, 54.6816],
	"type": "Point"
},
"properties": {
	"abbrev": "UHPM",
	"featureclass": "Airport",
	"gps_code": "UHPM",
	"iata_code": "UHPM",
	"location": "terminal",
	"name": "Мильково",
	"natlscale": 8,
	"scalerank": 10,
	"type": "small",
	"wikipedia": "",
	"addition": {
   	"title": "Мильково - UHPM - ГА",
       "id": "667",
       "icon": "ls-green-24.png"
	}
}},

{
"geometry": {
	"coordinates": [ 158.3031, 53.0432],
	"type": "Point"
},
"properties": {
	"abbrev": "1",
	"featureclass": "Airport",
	"gps_code": "1",
	"iata_code": "1",
	"location": "terminal",
	"name": "Николаевка-1",
	"natlscale": 8,
	"scalerank": 10,
	"type": "small",
	"wikipedia": "",
	"addition": {
   	"title": "Николаевка-1 - ZA8U - АОН",
       "id": "719",
       "icon": "ls-gray-24.png"
	}
}},

{
"geometry": {
	"coordinates": [ 158.1516, 54.2945],
	"type": "Point"
},
"properties": {
	"abbrev": "XHPN",
	"featureclass": "Airport",
	"gps_code": "XHPN",
	"iata_code": "XHPN",
	"location": "terminal",
	"name": "Пущино",
	"natlscale": 8,
	"scalerank": 10,
	"type": "small",
	"wikipedia": "",
	"addition": {
   	"title": "Пущино - XHPN - МО",
       "id": "916",
       "icon": "ls-gray-24.png"
	}
}},

{
"geometry": {
	"coordinates": [ 166.0486, 55.1782],
	"type": "Point"
},
"properties": {
	"abbrev": "UHPX",
	"featureclass": "Airport",
	"gps_code": "UHPX",
	"iata_code": "UHPX",
	"location": "terminal",
	"name": "Никольское",
	"natlscale": 8,
	"scalerank": 10,
	"type": "small",
	"wikipedia": "",
	"addition": {
   	"title": "Никольское - UHPX - ГА",
       "id": "1956",
       "icon": "ls-green-24.png"
	}
}},

{
"geometry": {
	"coordinates": [ 159.8958, 53.667],
	"type": "Point"
},
"properties": {
	"abbrev": "ZC3S",
	"featureclass": "Airport",
	"gps_code": "ZC3S",
	"iata_code": "ZC3S",
	"location": "terminal",
	"name": "Река Жупанова",
	"natlscale": 8,
	"scalerank": 10,
	"type": "small",
	"wikipedia": "",
	"addition": {
   	"title": "Река Жупанова - ZC3S - ФСБ",
       "id": "5388",
       "icon": "ls-red-24.png"
	}
}},

{
"geometry": {
	"coordinates": [ 157.7472, 53.0925],
	"type": "Point"
},
"properties": {
	"abbrev": "UHPI",
	"featureclass": "Airport",
	"gps_code": "UHPI",
	"iata_code": "UHPI",
	"location": "terminal",
	"name": "Начики",
	"natlscale": 8,
	"scalerank": 10,
	"type": "small",
	"wikipedia": "",
	"addition": {
   	"title": "Начики - UHPI - ГА",
       "id": "5565",
       "icon": "ls-gray-24.png"
	}
}},

{
"geometry": {
	"coordinates": [ 160.5351, 54.6058],
	"type": "Point"
},
"properties": {
	"abbrev": "ZCH9",
	"featureclass": "Airport",
	"gps_code": "ZCH9",
	"iata_code": "ZCH9",
	"location": "terminal",
	"name": "Кроноцкий",
	"natlscale": 8,
	"scalerank": 10,
	"type": "small",
	"wikipedia": "",
	"addition": {
   	"title": "Кроноцкий - ZCH9 - ГА",
       "id": "5986",
       "icon": "ls-gray-24.png"
	}
}},

{
"geometry": {
	"coordinates": [ 158.1783, 53.3499],
	"type": "Point"
},
"properties": {
	"abbrev": "ZES9",
	"featureclass": "Airport",
	"gps_code": "ZES9",
	"iata_code": "ZES9",
	"location": "terminal",
	"name": "Северные Коряки",
	"natlscale": 8,
	"scalerank": 10,
	"type": "small",
	"wikipedia": "",
	"addition": {
   	"title": "Северные Коряки - ZES9 - ГА",
       "id": "8632",
       "icon": "ls-green-24.png"
	}
}},

{
"geometry": {
	"coordinates": [ 158.3167, 53.0509],
	"type": "Point"
},
"properties": {
	"abbrev": "ZF3Z",
	"featureclass": "Airport",
	"gps_code": "ZF3Z",
	"iata_code": "ZF3Z",
	"location": "terminal",
	"name": "Николаевка",
	"natlscale": 8,
	"scalerank": 10,
	"type": "small",
	"wikipedia": "",
	"addition": {
   	"title": "Николаевка - ZF3Z - АОН",
       "id": "9704",
       "icon": "ls-blue-24.png"
	}
}},

{
"geometry": {
	"coordinates": [ 158.6648, 52.9138],
	"type": "Point"
},
"properties": {
	"abbrev": "ZF45",
	"featureclass": "Airport",
	"gps_code": "ZF45",
	"iata_code": "ZF45",
	"location": "terminal",
	"name": "Завойко",
	"natlscale": 8,
	"scalerank": 10,
	"type": "small",
	"wikipedia": "",
	"addition": {
   	"title": "Завойко - ZF45 - МО",
       "id": "9746",
       "icon": "ls-gray-24.png"
	}
}},

{
"geometry": {
	"coordinates": [ 158.7108, 55.938],
	"type": "Point"
},
"properties": {
	"abbrev": "UHQS",
	"featureclass": "Airport",
	"gps_code": "UHQS",
	"iata_code": "UHQS",
	"location": "terminal",
	"name": "Эссо",
	"natlscale": 8,
	"scalerank": 10,
	"type": "small",
	"wikipedia": "",
	"addition": {
   	"title": "Эссо - UHQS - ГА",
       "id": "275",
       "icon": "ls-green-24.png"
	}
}},

{
"geometry": {
	"coordinates": [ 160.8046, 56.3098],
	"type": "Point"
},
"properties": {
	"abbrev": "XHPL",
	"featureclass": "Airport",
	"gps_code": "XHPL",
	"iata_code": "XHPL",
	"location": "terminal",
	"name": "Ключи Камчатские",
	"natlscale": 8,
	"scalerank": 10,
	"type": "small",
	"wikipedia": "",
	"addition": {
   	"title": "Ключи Камчатские - XHPL - МО",
       "id": "463",
       "icon": "ls-red-24.png"
	}
}},

{
"geometry": {
	"coordinates": [ 159.873, 56.0851],
	"type": "Point"
},
"properties": {
	"abbrev": "UHPO",
	"featureclass": "Airport",
	"gps_code": "UHPO",
	"iata_code": "UHPO",
	"location": "terminal",
	"name": "Козыревск",
	"natlscale": 8,
	"scalerank": 10,
	"type": "small",
	"wikipedia": "",
	"addition": {
   	"title": "Козыревск - UHPO - АОН",
       "id": "507",
       "icon": "ls-blue-24.png"
	}
}},

{
"geometry": {
	"coordinates": [ 158.7301, 57.7842],
	"type": "Point"
},
"properties": {
	"abbrev": "UHPG",
	"featureclass": "Airport",
	"gps_code": "UHPG",
	"iata_code": "UHPG",
	"location": "terminal",
	"name": "Тигиль",
	"natlscale": 8,
	"scalerank": 10,
	"type": "small",
	"wikipedia": "",
	"addition": {
   	"title": "Тигиль - UHPG - ГА",
       "id": "1170",
       "icon": "ls-green-24.png"
	}
}},

{
"geometry": {
	"coordinates": [ 162.0208, 57.9289],
	"type": "Point"
},
"properties": {
	"abbrev": "ZAT9",
	"featureclass": "Airport",
	"gps_code": "ZAT9",
	"iata_code": "ZAT9",
	"location": "terminal",
	"name": "Укинский",
	"natlscale": 8,
	"scalerank": 10,
	"type": "small",
	"wikipedia": "",
	"addition": {
   	"title": "Укинский - ZAT9 - МО",
       "id": "1228",
       "icon": "ls-gray-24.png"
	}
}},

{
"geometry": {
	"coordinates": [ 162.6901, 56.2388],
	"type": "Point"
},
"properties": {
	"abbrev": "Камчатск",
	"featureclass": "Airport",
	"gps_code": "Камчатск",
	"iata_code": "Камчатск",
	"location": "terminal",
	"name": "Усть-Камчатск",
	"natlscale": 8,
	"scalerank": 10,
	"type": "small",
	"wikipedia": "",
	"addition": {
   	"title": "Усть-Камчатск - UHPK - ГА",
       "id": "1253",
       "icon": "ls-green-24.png"
	}
}},

{
"geometry": {
	"coordinates": [ 159.3909, 58.2991],
	"type": "Point"
},
"properties": {
	"abbrev": "UHQC",
	"featureclass": "Airport",
	"gps_code": "UHQC",
	"iata_code": "UHQC",
	"location": "terminal",
	"name": "Воямполка",
	"natlscale": 8,
	"scalerank": 10,
	"type": "small",
	"wikipedia": "",
	"addition": {
   	"title": "Воямполка - UHQC - ГА",
       "id": "5758",
       "icon": "ls-gray-24.png"
	}
}},

{
"geometry": {
	"coordinates": [ 162.3049, 58.5703],
	"type": "Point"
},
"properties": {
	"abbrev": "ZCH6",
	"featureclass": "Airport",
	"gps_code": "ZCH6",
	"iata_code": "ZCH6",
	"location": "terminal",
	"name": "Ивашка",
	"natlscale": 8,
	"scalerank": 10,
	"type": "small",
	"wikipedia": "",
	"addition": {
   	"title": "Ивашка - ZCH6 - ГА",
       "id": "5983",
       "icon": "ls-green-24.png"
	}
}},

{
"geometry": {
	"coordinates": [ 160.0626, 56.2437],
	"type": "Point"
},
"properties": {
	"abbrev": "ZCJ4",
	"featureclass": "Airport",
	"gps_code": "ZCJ4",
	"iata_code": "ZCJ4",
	"location": "terminal",
	"name": "Майское",
	"natlscale": 8,
	"scalerank": 10,
	"type": "small",
	"wikipedia": "",
	"addition": {
   	"title": "Майское - ZCJ4 - ГА",
       "id": "6007",
       "icon": "ls-gray-24.png"
	}
}},

{
"geometry": {
	"coordinates": [ 163.0663, 59.2236],
	"type": "Point"
},
"properties": {
	"abbrev": "UHPD",
	"featureclass": "Airport",
	"gps_code": "UHPD",
	"iata_code": "UHPD",
	"location": "terminal",
	"name": "Оссора",
	"natlscale": 8,
	"scalerank": 10,
	"type": "small",
	"wikipedia": "",
	"addition": {
   	"title": "Оссора - UHPD - ГА",
       "id": "813",
       "icon": "ls-green-24.png"
	}
}},

{
"geometry": {
	"coordinates": [ 169.1114, 60.5562],
	"type": "Point"
},
"properties": {
	"abbrev": "UHPA",
	"featureclass": "Airport",
	"gps_code": "UHPA",
	"iata_code": "UHPA",
	"location": "terminal",
	"name": "Пахачи",
	"natlscale": 8,
	"scalerank": 10,
	"type": "small",
	"wikipedia": "",
	"addition": {
   	"title": "Пахачи - UHPA - ГА",
       "id": "826",
       "icon": "ls-green-24.png"
	}
}},

{
"geometry": {
	"coordinates": [ 159.8912, 59.0821],
	"type": "Point"
},
"properties": {
	"abbrev": "UHPL",
	"featureclass": "Airport",
	"gps_code": "UHPL",
	"iata_code": "UHPL",
	"location": "terminal",
	"name": "Палана",
	"natlscale": 8,
	"scalerank": 10,
	"type": "small",
	"wikipedia": "",
	"addition": {
   	"title": "Палана - UHPL - ГА",
       "id": "828",
       "icon": "ls-green-24.png"
	}
}},

{
"geometry": {
	"coordinates": [ 166.0257, 60.385],
	"type": "Point"
},
"properties": {
	"abbrev": "UHPT",
	"featureclass": "Airport",
	"gps_code": "UHPT",
	"iata_code": "UHPT",
	"location": "terminal",
	"name": "Тиличики",
	"natlscale": 8,
	"scalerank": 10,
	"type": "small",
	"wikipedia": "",
	"addition": {
   	"title": "Тиличики - UHPT - ГА",
       "id": "1175",
       "icon": "ls-green-24.png"
	}
}},

{
"geometry": {
	"coordinates": [ 170.4947, 61.0133],
	"type": "Point"
},
"properties": {
	"abbrev": "UHPJ",
	"featureclass": "Airport",
	"gps_code": "UHPJ",
	"iata_code": "UHPJ",
	"location": "terminal",
	"name": "Ачайваям",
	"natlscale": 8,
	"scalerank": 10,
	"type": "small",
	"wikipedia": "",
	"addition": {
   	"title": "Ачайваям - UHPJ - ГА",
       "id": "3280",
       "icon": "ls-gray-24.png"
	}
}},

{
"geometry": {
	"coordinates": [ 159.9668, 59.0581],
	"type": "Point"
},
"properties": {
	"abbrev": "2",
	"featureclass": "Airport",
	"gps_code": "2",
	"iata_code": "2",
	"location": "terminal",
	"name": "Палана-2",
	"natlscale": 8,
	"scalerank": 10,
	"type": "small",
	"wikipedia": "",
	"addition": {
   	"title": "Палана-2 - ZC3T - МО",
       "id": "5394",
       "icon": "ls-gray-24.png"
	}
}},

{
"geometry": {
	"coordinates": [ 160.1485, 61.3661],
	"type": "Point"
},
"properties": {
	"abbrev": "UHGO",
	"featureclass": "Airport",
	"gps_code": "UHGO",
	"iata_code": "UHGO",
	"location": "terminal",
	"name": "Тополовка",
	"natlscale": 8,
	"scalerank": 10,
	"type": "small",
	"wikipedia": "",
	"addition": {
   	"title": "Тополовка - UHGO - ГА",
       "id": "5579",
       "icon": "ls-gray-24.png"
	}
}},

{
"geometry": {
	"coordinates": [ 163.1807, 59.4986],
	"type": "Point"
},
"properties": {
	"abbrev": "ZC9S",
	"featureclass": "Airport",
	"gps_code": "ZC9S",
	"iata_code": "ZC9S",
	"location": "terminal",
	"name": "Тымлат",
	"natlscale": 8,
	"scalerank": 10,
	"type": "small",
	"wikipedia": "",
	"addition": {
   	"title": "Тымлат - ZC9S - ГА",
       "id": "5821",
       "icon": "ls-gray-24.png"
	}
}},

{
"geometry": {
	"coordinates": [ 169.0762, 60.8162],
	"type": "Point"
},
"properties": {
	"abbrev": "ZCJ0",
	"featureclass": "Airport",
	"gps_code": "ZCJ0",
	"iata_code": "ZCJ0",
	"location": "terminal",
	"name": "Средние Пахачи",
	"natlscale": 8,
	"scalerank": 10,
	"type": "small",
	"wikipedia": "",
	"addition": {
   	"title": "Средние Пахачи - ZCJ0 - ГА",
       "id": "5989",
       "icon": "ls-green-24.png"
	}
}},

{
"geometry": {
	"coordinates": [ 179.2939, 63.0213],
	"type": "Point"
},
"properties": {
	"abbrev": "UHMR",
	"featureclass": "Airport",
	"gps_code": "UHMR",
	"iata_code": "UHMR",
	"location": "terminal",
	"name": "Беринговский",
	"natlscale": 8,
	"scalerank": 10,
	"type": "small",
	"wikipedia": "",
	"addition": {
   	"title": "Беринговский - UHMR - ГА",
       "id": "114",
       "icon": "ls-green-24.png"
	}
}},

{
"geometry": {
	"coordinates": [ 177.0678, 62.5413],
	"type": "Point"
},
"properties": {
	"abbrev": "Пыльгино",
	"featureclass": "Airport",
	"gps_code": "Пыльгино",
	"iata_code": "Пыльгино",
	"location": "terminal",
	"name": "Майно-Пыльгино",
	"natlscale": 8,
	"scalerank": 10,
	"type": "small",
	"wikipedia": "",
	"addition": {
   	"title": "Майно-Пыльгино - UHAY - ГА",
       "id": "5745",
       "icon": "ls-green-24.png"
	}
}},

{
"geometry": {
	"coordinates": [ 177.7415, 64.7349],
	"type": "Point"
},
"properties": {
	"abbrev": "UHMA",
	"featureclass": "Airport",
	"gps_code": "UHMA",
	"iata_code": "UHMA",
	"location": "terminal",
	"name": "Угольный",
	"natlscale": 8,
	"scalerank": 10,
	"type": "big",
	"wikipedia": "",
	"addition": {
   	"title": "Угольный - UHMA - ГА",
       "id": "30",
       "icon": "ls-green-24.png"
	}
}},

{
"geometry": {
	"coordinates": [ 189.0009, 65.581],
	"type": "Point"
},
"properties": {
	"abbrev": "UHML",
	"featureclass": "Airport",
	"gps_code": "UHML",
	"iata_code": "UHML",
	"location": "terminal",
	"name": "Залив Лаврентия",
	"natlscale": 8,
	"scalerank": 10,
	"type": "small",
	"wikipedia": "",
	"addition": {
   	"title": "Залив Лаврентия - UHML - ГА",
       "id": "577",
       "icon": "ls-green-24.png"
	}
}},

{
"geometry": {
	"coordinates": [ 186.7574, 64.379],
	"type": "Point"
},
"properties": {
	"abbrev": "UHMD",
	"featureclass": "Airport",
	"gps_code": "UHMD",
	"iata_code": "UHMD",
	"location": "terminal",
	"name": "Бухта Провидения",
	"natlscale": 8,
	"scalerank": 10,
	"type": "big",
	"wikipedia": "",
	"addition": {
   	"title": "Бухта Провидения - UHMD - ГА",
       "id": "903",
       "icon": "ls-green-24.png"
	}
}},

{
"geometry": {
	"coordinates": [ 180.8917, 66.3584],
	"type": "Point"
},
"properties": {
	"abbrev": "UHME",
	"featureclass": "Airport",
	"gps_code": "UHME",
	"iata_code": "UHME",
	"location": "terminal",
	"name": "Залив Креста",
	"natlscale": 8,
	"scalerank": 10,
	"type": "small",
	"wikipedia": "",
	"addition": {
   	"title": "Залив Креста - UHME - ГА",
       "id": "1381",
       "icon": "ls-green-24.png"
	}
}},

{
"geometry": {
	"coordinates": [ 177.5858, 64.8012],
	"type": "Point"
},
"properties": {
	"abbrev": "UHAG",
	"featureclass": "Airport",
	"gps_code": "UHAG",
	"iata_code": "UHAG",
	"location": "terminal",
	"name": "Горка",
	"natlscale": 8,
	"scalerank": 10,
	"type": "small",
	"wikipedia": "",
	"addition": {
   	"title": "Горка - UHAG - ГА",
       "id": "3239",
       "icon": "ls-gray-24.png"
	}
}},

{
"geometry": {
	"coordinates": [ 186.7644, 64.3523],
	"type": "Point"
},
"properties": {
	"abbrev": "ZB5S",
	"featureclass": "Airport",
	"gps_code": "ZB5S",
	"iata_code": "ZB5S",
	"location": "terminal",
	"name": "Урелики",
	"natlscale": 8,
	"scalerank": 10,
	"type": "small",
	"wikipedia": "",
	"addition": {
   	"title": "Урелики - ZB5S - ГА",
       "id": "4539",
       "icon": "ls-gray-24.png"
	}
}},

{
"geometry": {
	"coordinates": [ 180.9548, 66.2471],
	"type": "Point"
},
"properties": {
	"abbrev": "ZB64",
	"featureclass": "Airport",
	"gps_code": "ZB64",
	"iata_code": "ZB64",
	"location": "terminal",
	"name": "Мыс Пилотов",
	"natlscale": 8,
	"scalerank": 10,
	"type": "small",
	"wikipedia": "",
	"addition": {
   	"title": "Мыс Пилотов - ZB64 - ГА",
       "id": "4552",
       "icon": "ls-gray-24.png"
	}
}},

{
"geometry": {
	"coordinates": [ 180.6919, 65.5114],
	"type": "Point"
},
"properties": {
	"abbrev": "UHDX",
	"featureclass": "Airport",
	"gps_code": "UHDX",
	"iata_code": "UHDX",
	"location": "terminal",
	"name": "Уэлькаль",
	"natlscale": 8,
	"scalerank": 10,
	"type": "small",
	"wikipedia": "",
	"addition": {
   	"title": "Уэлькаль - UHDX - ГА",
       "id": "5425",
       "icon": "ls-green-24.png"
	}
}},

{
"geometry": {
	"coordinates": [ 181.1297, 65.9071],
	"type": "Point"
},
"properties": {
	"abbrev": "UHDK",
	"featureclass": "Airport",
	"gps_code": "UHDK",
	"iata_code": "UHDK",
	"location": "terminal",
	"name": "Конергино",
	"natlscale": 8,
	"scalerank": 10,
	"type": "small",
	"wikipedia": "",
	"addition": {
   	"title": "Конергино - UHDK - ГА",
       "id": "5426",
       "icon": "ls-gray-24.png"
	}
}},

{
"geometry": {
	"coordinates": [ 190.1743, 66.1623],
	"type": "Point"
},
"properties": {
	"abbrev": "UHLN",
	"featureclass": "Airport",
	"gps_code": "UHLN",
	"iata_code": "UHLN",
	"location": "terminal",
	"name": "Уэлен",
	"natlscale": 8,
	"scalerank": 10,
	"type": "small",
	"wikipedia": "",
	"addition": {
   	"title": "Уэлен - UHLN - ГА",
       "id": "5427",
       "icon": "ls-gray-24.png"
	}
}},

{
"geometry": {
	"coordinates": [ 189.6899, 66.3026],
	"type": "Point"
},
"properties": {
	"abbrev": "UHAJ",
	"featureclass": "Airport",
	"gps_code": "UHAJ",
	"iata_code": "UHAJ",
	"location": "terminal",
	"name": "Инчоун",
	"natlscale": 8,
	"scalerank": 10,
	"type": "small",
	"wikipedia": "",
	"addition": {
   	"title": "Инчоун - UHAJ - ГА",
       "id": "5732",
       "icon": "ls-gray-24.png"
	}
}},

{
"geometry": {
	"coordinates": [ 181.3279, 67.9109],
	"type": "Point"
},
"properties": {
	"abbrev": "UHMX",
	"featureclass": "Airport",
	"gps_code": "UHMX",
	"iata_code": "UHMX",
	"location": "terminal",
	"name": "Иультин",
	"natlscale": 8,
	"scalerank": 10,
	"type": "small",
	"wikipedia": "",
	"addition": {
   	"title": "Иультин - UHMX - ГА",
       "id": "342",
       "icon": "ls-green-24.png"
	}
}},

{
"geometry": {
	"coordinates": [ 180.6235, 68.8691],
	"type": "Point"
},
"properties": {
	"abbrev": "UHMI",
	"featureclass": "Airport",
	"gps_code": "UHMI",
	"iata_code": "UHMI",
	"location": "terminal",
	"name": "Мыс Шмидта",
	"natlscale": 8,
	"scalerank": 10,
	"type": "small",
	"wikipedia": "",
	"addition": {
   	"title": "Мыс Шмидта - UHMI - ГА",
       "id": "1044",
       "icon": "ls-green-24.png"
	}
}},

{
"geometry": {
	"coordinates": [ 180.4481, 70.9463],
	"type": "Point"
},
"properties": {
	"abbrev": "UHMZ",
	"featureclass": "Airport",
	"gps_code": "UHMZ",
	"iata_code": "UHMZ",
	"location": "terminal",
	"name": "Остров Врангеля",
	"natlscale": 8,
	"scalerank": 10,
	"type": "small",
	"wikipedia": "",
	"addition": {
   	"title": "Остров Врангеля - UHMZ - ГА",
       "id": "5737",
       "icon": "ls-green-24.png"
	}
}},

{
"geometry": {
	"coordinates": [ 147.9003, 70.6252],
	"type": "Point"
},
"properties": {
	"abbrev": "UESO",
	"featureclass": "Airport",
	"gps_code": "UESO",
	"iata_code": "UESO",
	"location": "terminal",
	"name": "Чокурдах",
	"natlscale": 8,
	"scalerank": 10,
	"type": "small",
	"wikipedia": "",
	"addition": {
   	"title": "Чокурдах - UESO - ГА",
       "id": "211",
       "icon": "ls-green-24.png"
	}
}},

{
"geometry": {
	"coordinates": [ 154.4608, 69.1702],
	"type": "Point"
},
"properties": {
	"abbrev": "UESA",
	"featureclass": "Airport",
	"gps_code": "UESA",
	"iata_code": "UESA",
	"location": "terminal",
	"name": "Андрюшкино",
	"natlscale": 8,
	"scalerank": 10,
	"type": "small",
	"wikipedia": "",
	"addition": {
   	"title": "Андрюшкино - UESA - ГА",
       "id": "36",
       "icon": "ls-green-24.png"
	}
}},

{
"geometry": {
	"coordinates": [ 161.3397, 68.7413],
	"type": "Point"
},
"properties": {
	"abbrev": "UESS",
	"featureclass": "Airport",
	"gps_code": "UESS",
	"iata_code": "UESS",
	"location": "terminal",
	"name": "Черский",
	"natlscale": 8,
	"scalerank": 10,
	"type": "small",
	"wikipedia": "",
	"addition": {
   	"title": "Черский - UESS - ГА",
       "id": "204",
       "icon": "ls-green-24.png"
	}
}},

{
"geometry": {
	"coordinates": [ 161.566, 69.3609],
	"type": "Point"
},
"properties": {
	"abbrev": "ZA2V",
	"featureclass": "Airport",
	"gps_code": "ZA2V",
	"iata_code": "ZA2V",
	"location": "terminal",
	"name": "Дресба",
	"natlscale": 8,
	"scalerank": 10,
	"type": "small",
	"wikipedia": "",
	"addition": {
   	"title": "Дресба - ZA2V - МО",
       "id": "239",
       "icon": "ls-gray-24.png"
	}
}},

{
"geometry": {
	"coordinates": [ 170.5966, 69.7835],
	"type": "Point"
},
"properties": {
	"abbrev": "UHMP",
	"featureclass": "Airport",
	"gps_code": "UHMP",
	"iata_code": "UHMP",
	"location": "terminal",
	"name": "Певек",
	"natlscale": 8,
	"scalerank": 10,
	"type": "small",
	"wikipedia": "",
	"addition": {
   	"title": "Певек - UHMP - ГА",
       "id": "864",
       "icon": "ls-green-24.png"
	}
}},

{
"geometry": {
	"coordinates": [ 147.4967, 69.8068],
	"type": "Point"
},
"properties": {
	"abbrev": "UESN",
	"featureclass": "Airport",
	"gps_code": "UESN",
	"iata_code": "UESN",
	"location": "terminal",
	"name": "Оленегорск",
	"natlscale": 8,
	"scalerank": 10,
	"type": "small",
	"wikipedia": "",
	"addition": {
   	"title": "Оленегорск - UESN - ГА",
       "id": "2754",
       "icon": "ls-green-24.png"
	}
}},

{
"geometry": {
	"coordinates": [ 140.7074, 70.165],
	"type": "Point"
},
"properties": {
	"abbrev": "UEBE",
	"featureclass": "Airport",
	"gps_code": "UEBE",
	"iata_code": "UEBE",
	"location": "terminal",
	"name": "Тенкели",
	"natlscale": 8,
	"scalerank": 10,
	"type": "small",
	"wikipedia": "",
	"addition": {
   	"title": "Тенкели - UEBE - ГА",
       "id": "3114",
       "icon": "ls-gray-24.png"
	}
}},

{
"geometry": {
	"coordinates": [ 144.7243, 70.5321],
	"type": "Point"
},
"properties": {
	"abbrev": "UESJ",
	"featureclass": "Airport",
	"gps_code": "UESJ",
	"iata_code": "UESJ",
	"location": "terminal",
	"name": "Чкалово",
	"natlscale": 8,
	"scalerank": 10,
	"type": "small",
	"wikipedia": "",
	"addition": {
   	"title": "Чкалово - UESJ - ГА",
       "id": "3196",
       "icon": "ls-green-24.png"
	}
}},

{
"geometry": {
	"coordinates": [ 158.7142, 68.7266],
	"type": "Point"
},
"properties": {
	"abbrev": "UESM",
	"featureclass": "Airport",
	"gps_code": "UESM",
	"iata_code": "UESM",
	"location": "terminal",
	"name": "Колымское",
	"natlscale": 8,
	"scalerank": 10,
	"type": "small",
	"wikipedia": "",
	"addition": {
   	"title": "Колымское - UESM - ГА",
       "id": "3199",
       "icon": "ls-gray-24.png"
	}
}},

{
"geometry": {
	"coordinates": [ 151.8719, 68.6769],
	"type": "Point"
},
"properties": {
	"abbrev": "Кюель",
	"featureclass": "Airport",
	"gps_code": "Кюель",
	"iata_code": "Кюель",
	"location": "terminal",
	"name": "Алеко-Кюель",
	"natlscale": 8,
	"scalerank": 10,
	"type": "small",
	"wikipedia": "",
	"addition": {
   	"title": "Алеко-Кюель - UESX - ГА",
       "id": "3203",
       "icon": "ls-green-24.png"
	}
}},

{
"geometry": {
	"coordinates": [ 168.0097, 69.9262],
	"type": "Point"
},
"properties": {
	"abbrev": "ZF4X",
	"featureclass": "Airport",
	"gps_code": "ZF4X",
	"iata_code": "ZF4X",
	"location": "terminal",
	"name": "Айон",
	"natlscale": 8,
	"scalerank": 10,
	"type": "small",
	"wikipedia": "",
	"addition": {
   	"title": "Айон - ZF4X - ГА",
       "id": "5752",
       "icon": "ls-gray-24.png"
	}
}},

{
"geometry": {
	"coordinates": [ 150.3136, 68.8663],
	"type": "Point"
},
"properties": {
	"abbrev": "UEHS",
	"featureclass": "Airport",
	"gps_code": "UEHS",
	"iata_code": "UEHS",
	"location": "terminal",
	"name": "Соянги",
	"natlscale": 8,
	"scalerank": 10,
	"type": "small",
	"wikipedia": "",
	"addition": {
   	"title": "Соянги - UEHS - ГА",
       "id": "6523",
       "icon": "ls-green-24.png"
	}
}},

{
"geometry": {
	"coordinates": [ 146.2312, 68.5571],
	"type": "Point"
},
"properties": {
	"abbrev": "UESG",
	"featureclass": "Airport",
	"gps_code": "UESG",
	"iata_code": "UESG",
	"location": "terminal",
	"name": "Белая Гора",
	"natlscale": 8,
	"scalerank": 10,
	"type": "small",
	"wikipedia": "",
	"addition": {
   	"title": "Белая Гора - UESG - ГА",
       "id": "93",
       "icon": "ls-green-24.png"
	}
}},

{
"geometry": {
	"coordinates": [ 166.1379, 67.8473],
	"type": "Point"
},
"properties": {
	"abbrev": "UHMK",
	"featureclass": "Airport",
	"gps_code": "UHMK",
	"iata_code": "UHMK",
	"location": "terminal",
	"name": "Кепервеем",
	"natlscale": 8,
	"scalerank": 10,
	"type": "small",
	"wikipedia": "",
	"addition": {
   	"title": "Кепервеем - UHMK - ГА",
       "id": "414",
       "icon": "ls-green-24.png"
	}
}},

{
"geometry": {
	"coordinates": [ 153.7297, 67.4746],
	"type": "Point"
},
"properties": {
	"abbrev": "UESK",
	"featureclass": "Airport",
	"gps_code": "UESK",
	"iata_code": "UESK",
	"location": "terminal",
	"name": "Среднеколымск",
	"natlscale": 8,
	"scalerank": 10,
	"type": "small",
	"wikipedia": "",
	"addition": {
   	"title": "Среднеколымск - UESK - ГА",
       "id": "1101",
       "icon": "ls-green-24.png"
	}
}},

{
"geometry": {
	"coordinates": [ 153.363, 68.4435],
	"type": "Point"
},
"properties": {
	"abbrev": "UESH",
	"featureclass": "Airport",
	"gps_code": "UESH",
	"iata_code": "UESH",
	"location": "terminal",
	"name": "Аргахтах",
	"natlscale": 8,
	"scalerank": 10,
	"type": "small",
	"wikipedia": "",
	"addition": {
   	"title": "Аргахтах - UESH - ГА",
       "id": "2758",
       "icon": "ls-green-24.png"
	}
}},

{
"geometry": {
	"coordinates": [ 143.6341, 68.3746],
	"type": "Point"
},
"properties": {
	"abbrev": "UEMN",
	"featureclass": "Airport",
	"gps_code": "UEMN",
	"iata_code": "UEMN",
	"location": "terminal",
	"name": "Сыаганнах",
	"natlscale": 8,
	"scalerank": 10,
	"type": "small",
	"wikipedia": "",
	"addition": {
   	"title": "Сыаганнах - UEMN - ГА",
       "id": "3071",
       "icon": "ls-gray-24.png"
	}
}},

{
"geometry": {
	"coordinates": [ 142.7275, 66.7954],
	"type": "Point"
},
"properties": {
	"abbrev": "Елбют",
	"featureclass": "Airport",
	"gps_code": "Елбют",
	"iata_code": "Елбют",
	"location": "terminal",
	"name": "Кулун-Елбют",
	"natlscale": 8,
	"scalerank": 10,
	"type": "small",
	"wikipedia": "",
	"addition": {
   	"title": "Кулун-Елбют - UEWG - ГА",
       "id": "3126",
       "icon": "ls-green-24.png"
	}
}},

{
"geometry": {
	"coordinates": [ 152.5756, 67.4896],
	"type": "Point"
},
"properties": {
	"abbrev": "UEMC",
	"featureclass": "Airport",
	"gps_code": "UEMC",
	"iata_code": "UEMC",
	"location": "terminal",
	"name": "Хатынгнах",
	"natlscale": 8,
	"scalerank": 10,
	"type": "small",
	"wikipedia": "",
	"addition": {
   	"title": "Хатынгнах - UEMC - ГА",
       "id": "3147",
       "icon": "ls-gray-24.png"
	}
}},

{
"geometry": {
	"coordinates": [ 144.5093, 67.7658],
	"type": "Point"
},
"properties": {
	"abbrev": "UEMG",
	"featureclass": "Airport",
	"gps_code": "UEMG",
	"iata_code": "UEMG",
	"location": "terminal",
	"name": "Кэбэргэнэ",
	"natlscale": 8,
	"scalerank": 10,
	"type": "small",
	"wikipedia": "",
	"addition": {
   	"title": "Кэбэргэнэ - UEMG - ГА",
       "id": "3150",
       "icon": "ls-green-24.png"
	}
}},

{
"geometry": {
	"coordinates": [ 154.7166, 68.2852],
	"type": "Point"
},
"properties": {
	"abbrev": "UESD",
	"featureclass": "Airport",
	"gps_code": "UESD",
	"iata_code": "UESD",
	"location": "terminal",
	"name": "Ойусардах",
	"natlscale": 8,
	"scalerank": 10,
	"type": "small",
	"wikipedia": "",
	"addition": {
   	"title": "Ойусардах - UESD - ГА",
       "id": "3183",
       "icon": "ls-green-24.png"
	}
}},

{
"geometry": {
	"coordinates": [ 156.5904, 67.1203],
	"type": "Point"
},
"properties": {
	"abbrev": "UESC",
	"featureclass": "Airport",
	"gps_code": "UESC",
	"iata_code": "UESC",
	"location": "terminal",
	"name": "Березовка",
	"natlscale": 8,
	"scalerank": 10,
	"type": "small",
	"wikipedia": "",
	"addition": {
   	"title": "Березовка - UESC - ГА",
       "id": "3192",
       "icon": "ls-gray-24.png"
	}
}},

{
"geometry": {
	"coordinates": [ 144.5204, 68.3638],
	"type": "Point"
},
"properties": {
	"abbrev": "Атах",
	"featureclass": "Airport",
	"gps_code": "Атах",
	"iata_code": "Атах",
	"location": "terminal",
	"name": "Отто-Атах",
	"natlscale": 8,
	"scalerank": 10,
	"type": "small",
	"wikipedia": "",
	"addition": {
   	"title": "Отто-Атах - HB4J - ГА",
       "id": "3193",
       "icon": "ls-gray-24.png"
	}
}},

{
"geometry": {
	"coordinates": [ 154.8396, 67.8482],
	"type": "Point"
},
"properties": {
	"abbrev": "Ытар",
	"featureclass": "Airport",
	"gps_code": "Ытар",
	"iata_code": "Ытар",
	"location": "terminal",
	"name": "Сылгы-Ытар",
	"natlscale": 8,
	"scalerank": 10,
	"type": "small",
	"wikipedia": "",
	"addition": {
   	"title": "Сылгы-Ытар - UESL - ГА",
       "id": "3198",
       "icon": "ls-gray-24.png"
	}
}},

{
"geometry": {
	"coordinates": [ 145.0944, 68.4009],
	"type": "Point"
},
"properties": {
	"abbrev": "UESY",
	"featureclass": "Airport",
	"gps_code": "UESY",
	"iata_code": "UESY",
	"location": "terminal",
	"name": "Абый",
	"natlscale": 8,
	"scalerank": 10,
	"type": "small",
	"wikipedia": "",
	"addition": {
   	"title": "Абый - UESY - ГА",
       "id": "3204",
       "icon": "ls-green-24.png"
	}
}},

{
"geometry": {
	"coordinates": [ 150.7218, 68.393],
	"type": "Point"
},
"properties": {
	"abbrev": "UESQ",
	"featureclass": "Airport",
	"gps_code": "UESQ",
	"iata_code": "UESQ",
	"location": "terminal",
	"name": "Эбях",
	"natlscale": 8,
	"scalerank": 10,
	"type": "small",
	"wikipedia": "",
	"addition": {
   	"title": "Эбях - UESQ - ГА",
       "id": "3206",
       "icon": "ls-green-24.png"
	}
}},

{
"geometry": {
	"coordinates": [ 168.2574, 68.4954],
	"type": "Point"
},
"properties": {
	"abbrev": "UHMB",
	"featureclass": "Airport",
	"gps_code": "UHMB",
	"iata_code": "UHMB",
	"location": "terminal",
	"name": "Бараниха",
	"natlscale": 8,
	"scalerank": 10,
	"type": "small",
	"wikipedia": "",
	"addition": {
   	"title": "Бараниха - UHMB - ГА",
       "id": "3268",
       "icon": "ls-gray-24.png"
	}
}},

{
"geometry": {
	"coordinates": [ 145.9857, 68.0768],
	"type": "Point"
},
"properties": {
	"abbrev": "Кюель (Уолбут)",
	"featureclass": "Airport",
	"gps_code": "Кюель (Уолбут)",
	"iata_code": "Кюель (Уолбут)",
	"location": "terminal",
	"name": "Киенг-Кюель (Уолбут)",
	"natlscale": 8,
	"scalerank": 10,
	"type": "small",
	"wikipedia": "",
	"addition": {
   	"title": "Киенг-Кюель (Уолбут) - ZC7T - ГА",
       "id": "5688",
       "icon": "ls-green-24.png"
	}
}},

{
"geometry": {
	"coordinates": [ 166.8213, 66.9659],
	"type": "Point"
},
"properties": {
	"abbrev": "ZC8P",
	"featureclass": "Airport",
	"gps_code": "ZC8P",
	"iata_code": "ZC8P",
	"location": "terminal",
	"name": "Стадухино",
	"natlscale": 8,
	"scalerank": 10,
	"type": "small",
	"wikipedia": "",
	"addition": {
   	"title": "Стадухино - ZC8P - ГА",
       "id": "5747",
       "icon": "ls-green-24.png"
	}
}},

{
"geometry": {
	"coordinates": [ 164.1677, 68.117],
	"type": "Point"
},
"properties": {
	"abbrev": "UHEO",
	"featureclass": "Airport",
	"gps_code": "UHEO",
	"iata_code": "UHEO",
	"location": "terminal",
	"name": "Островное",
	"natlscale": 8,
	"scalerank": 10,
	"type": "small",
	"wikipedia": "",
	"addition": {
   	"title": "Островное - UHEO - ГА",
       "id": "5750",
       "icon": "ls-gray-24.png"
	}
}},

{
"geometry": {
	"coordinates": [ 167.9507, 67.2549],
	"type": "Point"
},
"properties": {
	"abbrev": "UHEI",
	"featureclass": "Airport",
	"gps_code": "UHEI",
	"iata_code": "UHEI",
	"location": "terminal",
	"name": "Илирней",
	"natlscale": 8,
	"scalerank": 10,
	"type": "small",
	"wikipedia": "",
	"addition": {
   	"title": "Илирней - UHEI - ГА",
       "id": "5751",
       "icon": "ls-green-24.png"
	}
}},

{
"geometry": {
	"coordinates": [ 169.56, 66.9017],
	"type": "Point"
},
"properties": {
	"abbrev": "UHEK",
	"featureclass": "Airport",
	"gps_code": "UHEK",
	"iata_code": "UHEK",
	"location": "terminal",
	"name": "Купол",
	"natlscale": 8,
	"scalerank": 10,
	"type": "small",
	"wikipedia": "",
	"addition": {
   	"title": "Купол - UHEK - АОН",
       "id": "6095",
       "icon": "ls-blue-24.png"
	}
}},

{
"geometry": {
	"coordinates": [ 151.7986, 68.0566],
	"type": "Point"
},
"properties": {
	"abbrev": "UESW",
	"featureclass": "Airport",
	"gps_code": "UESW",
	"iata_code": "UESW",
	"location": "terminal",
	"name": "Сватай",
	"natlscale": 8,
	"scalerank": 10,
	"type": "small",
	"wikipedia": "",
	"addition": {
   	"title": "Сватай - UESW - ГА",
       "id": "6503",
       "icon": "ls-green-24.png"
	}
}},

{
"geometry": {
	"coordinates": [ 155.1367, 68.4868],
	"type": "Point"
},
"properties": {
	"abbrev": "ZD3Y",
	"featureclass": "Airport",
	"gps_code": "ZD3Y",
	"iata_code": "ZD3Y",
	"location": "terminal",
	"name": "Роман",
	"natlscale": 8,
	"scalerank": 10,
	"type": "small",
	"wikipedia": "",
	"addition": {
   	"title": "Роман - ZD3Y - ГА",
       "id": "6606",
       "icon": "ls-gray-24.png"
	}
}},

{
"geometry": {
	"coordinates": [ 160.5486, 61.8354],
	"type": "Point"
},
"properties": {
	"abbrev": "UHMG",
	"featureclass": "Airport",
	"gps_code": "UHMG",
	"iata_code": "UHMG",
	"location": "terminal",
	"name": "Чайбуха",
	"natlscale": 8,
	"scalerank": 10,
	"type": "small",
	"wikipedia": "",
	"addition": {
   	"title": "Чайбуха - UHMG - ГА",
       "id": "186",
       "icon": "ls-green-24.png"
	}
}},

{
"geometry": {
	"coordinates": [ 159.2296, 61.9222],
	"type": "Point"
},
"properties": {
	"abbrev": "Эвенск",
	"featureclass": "Airport",
	"gps_code": "Эвенск",
	"iata_code": "Эвенск",
	"location": "terminal",
	"name": "Северо-Эвенск",
	"natlscale": 8,
	"scalerank": 10,
	"type": "small",
	"wikipedia": "",
	"addition": {
   	"title": "Северо-Эвенск - UHMW - ГА",
       "id": "276",
       "icon": "ls-green-24.png"
	}
}},

{
"geometry": {
	"coordinates": [ 170.411, 64.6654],
	"type": "Point"
},
"properties": {
	"abbrev": "UHMO",
	"featureclass": "Airport",
	"gps_code": "UHMO",
	"iata_code": "UHMO",
	"location": "terminal",
	"name": "Марково",
	"natlscale": 8,
	"scalerank": 10,
	"type": "small",
	"wikipedia": "",
	"addition": {
   	"title": "Марково - UHMO - ГА",
       "id": "645",
       "icon": "ls-green-24.png"
	}
}},

{
"geometry": {
	"coordinates": [ 143.2609, 66.4514],
	"type": "Point"
},
"properties": {
	"abbrev": "UEMA",
	"featureclass": "Airport",
	"gps_code": "UEMA",
	"iata_code": "UEMA",
	"location": "terminal",
	"name": "Мома",
	"natlscale": 8,
	"scalerank": 10,
	"type": "small",
	"wikipedia": "",
	"addition": {
   	"title": "Мома - UEMA - ГА",
       "id": "677",
       "icon": "ls-green-24.png"
	}
}},

{
"geometry": {
	"coordinates": [ 143.1741, 63.243],
	"type": "Point"
},
"properties": {
	"abbrev": "UEMJ",
	"featureclass": "Airport",
	"gps_code": "UEMJ",
	"iata_code": "UEMJ",
	"location": "terminal",
	"name": "Оймякон",
	"natlscale": 8,
	"scalerank": 10,
	"type": "small",
	"wikipedia": "",
	"addition": {
   	"title": "Оймякон - UEMJ - ГА",
       "id": "773",
       "icon": "ls-green-24.png"
	}
}},

{
"geometry": {
	"coordinates": [ 160.5452, 65.2388],
	"type": "Point"
},
"properties": {
	"abbrev": "UHMN",
	"featureclass": "Airport",
	"gps_code": "UHMN",
	"iata_code": "UHMN",
	"location": "terminal",
	"name": "Омолон",
	"natlscale": 8,
	"scalerank": 10,
	"type": "small",
	"wikipedia": "",
	"addition": {
   	"title": "Омолон - UHMN - ГА",
       "id": "793",
       "icon": "ls-green-24.png"
	}
}},

{
"geometry": {
	"coordinates": [ 155.7481, 62.4588],
	"type": "Point"
},
"properties": {
	"abbrev": "UHMF",
	"featureclass": "Airport",
	"gps_code": "UHMF",
	"iata_code": "UHMF",
	"location": "terminal",
	"name": "Омсукчан",
	"natlscale": 8,
	"scalerank": 10,
	"type": "small",
	"wikipedia": "",
	"addition": {
   	"title": "Омсукчан - UHMF - ГА",
       "id": "798",
       "icon": "ls-green-24.png"
	}
}},

{
"geometry": {
	"coordinates": [ 152.4219, 62.9197],
	"type": "Point"
},
"properties": {
	"abbrev": "UHMS",
	"featureclass": "Airport",
	"gps_code": "UHMS",
	"iata_code": "UHMS",
	"location": "terminal",
	"name": "Сеймчан",
	"natlscale": 8,
	"scalerank": 10,
	"type": "small",
	"wikipedia": "",
	"addition": {
   	"title": "Сеймчан - UHMS - ГА",
       "id": "1019",
       "icon": "ls-green-24.png"
	}
}},

{
"geometry": {
	"coordinates": [ 150.7529, 62.2631],
	"type": "Point"
},
"properties": {
	"abbrev": "UHMQ",
	"featureclass": "Airport",
	"gps_code": "UHMQ",
	"iata_code": "UHMQ",
	"location": "terminal",
	"name": "Синегорье",
	"natlscale": 8,
	"scalerank": 10,
	"type": "small",
	"wikipedia": "",
	"addition": {
   	"title": "Синегорье - UHMQ - ГА",
       "id": "1054",
       "icon": "ls-gray-24.png"
	}
}},

{
"geometry": {
	"coordinates": [ 148.1453, 62.7643],
	"type": "Point"
},
"properties": {
	"abbrev": "UHMH",
	"featureclass": "Airport",
	"gps_code": "UHMH",
	"iata_code": "UHMH",
	"location": "terminal",
	"name": "Берелех",
	"natlscale": 8,
	"scalerank": 10,
	"type": "small",
	"wikipedia": "",
	"addition": {
   	"title": "Берелех - UHMH - ГА",
       "id": "1127",
       "icon": "ls-green-24.png"
	}
}},

{
"geometry": {
	"coordinates": [ 143.1131, 64.5498],
	"type": "Point"
},
"properties": {
	"abbrev": "Нера",
	"featureclass": "Airport",
	"gps_code": "Нера",
	"iata_code": "Нера",
	"location": "terminal",
	"name": "Усть-Нера",
	"natlscale": 8,
	"scalerank": 10,
	"type": "small",
	"wikipedia": "",
	"addition": {
   	"title": "Усть-Нера - UEMT - ГА",
       "id": "1261",
       "icon": "ls-green-24.png"
	}
}},

{
"geometry": {
	"coordinates": [ 150.8882, 65.7487],
	"type": "Point"
},
"properties": {
	"abbrev": "UESU",
	"featureclass": "Airport",
	"gps_code": "UESU",
	"iata_code": "UESU",
	"location": "terminal",
	"name": "Зырянка",
	"natlscale": 8,
	"scalerank": 10,
	"type": "small",
	"wikipedia": "",
	"addition": {
   	"title": "Зырянка - UESU - ГА",
       "id": "1403",
       "icon": "ls-green-24.png"
	}
}},

{
"geometry": {
	"coordinates": [ 147.074, 65.1679],
	"type": "Point"
},
"properties": {
	"abbrev": "HB2K",
	"featureclass": "Airport",
	"gps_code": "HB2K",
	"iata_code": "HB2K",
	"location": "terminal",
	"name": "Сасыр",
	"natlscale": 8,
	"scalerank": 10,
	"type": "small",
	"wikipedia": "",
	"addition": {
   	"title": "Сасыр - HB2K - ГА",
       "id": "3033",
       "icon": "ls-green-24.png"
	}
}},

{
"geometry": {
	"coordinates": [ 143.1685, 65.3713],
	"type": "Point"
},
"properties": {
	"abbrev": "UEAT",
	"featureclass": "Airport",
	"gps_code": "UEAT",
	"iata_code": "UEAT",
	"location": "terminal",
	"name": "Тюбелях",
	"natlscale": 8,
	"scalerank": 10,
	"type": "small",
	"wikipedia": "",
	"addition": {
   	"title": "Тюбелях - UEAT - ГА",
       "id": "3111",
       "icon": "ls-green-24.png"
	}
}},

{
"geometry": {
	"coordinates": [ 143.3238, 66.2561],
	"type": "Point"
},
"properties": {
	"abbrev": "UEGT",
	"featureclass": "Airport",
	"gps_code": "UEGT",
	"iata_code": "UEGT",
	"location": "terminal",
	"name": "Соболох",
	"natlscale": 8,
	"scalerank": 10,
	"type": "small",
	"wikipedia": "",
	"addition": {
   	"title": "Соболох - UEGT - ГА",
       "id": "3140",
       "icon": "ls-green-24.png"
	}
}},

{
"geometry": {
	"coordinates": [ 153.0964, 64.9999],
	"type": "Point"
},
"properties": {
	"abbrev": "UHGL",
	"featureclass": "Airport",
	"gps_code": "UHGL",
	"iata_code": "UHGL",
	"location": "terminal",
	"name": "Глухариное",
	"natlscale": 8,
	"scalerank": 10,
	"type": "small",
	"wikipedia": "",
	"addition": {
   	"title": "Глухариное - UHGL - ГА",
       "id": "3255",
       "icon": "ls-green-24.png"
	}
}},

{
"geometry": {
	"coordinates": [ 162.4102, 62.6531],
	"type": "Point"
},
"properties": {
	"abbrev": "UHGP",
	"featureclass": "Airport",
	"gps_code": "UHGP",
	"iata_code": "UHGP",
	"location": "terminal",
	"name": "Верхний Парень",
	"natlscale": 8,
	"scalerank": 10,
	"type": "small",
	"wikipedia": "",
	"addition": {
   	"title": "Верхний Парень - UHGP - ГА",
       "id": "3257",
       "icon": "ls-gray-24.png"
	}
}},

{
"geometry": {
	"coordinates": [ 167.5827, 63.7141],
	"type": "Point"
},
"properties": {
	"abbrev": "UHNQ",
	"featureclass": "Airport",
	"gps_code": "UHNQ",
	"iata_code": "UHNQ",
	"location": "terminal",
	"name": "Аянка",
	"natlscale": 8,
	"scalerank": 10,
	"type": "small",
	"wikipedia": "",
	"addition": {
   	"title": "Аянка - UHNQ - ГА",
       "id": "3277",
       "icon": "ls-green-24.png"
	}
}},

{
"geometry": {
	"coordinates": [ 165.339, 62.4858],
	"type": "Point"
},
"properties": {
	"abbrev": "UHPN",
	"featureclass": "Airport",
	"gps_code": "UHPN",
	"iata_code": "UHPN",
	"location": "terminal",
	"name": "Манилы",
	"natlscale": 8,
	"scalerank": 10,
	"type": "small",
	"wikipedia": "",
	"addition": {
   	"title": "Манилы - UHPN - ГА",
       "id": "3281",
       "icon": "ls-green-24.png"
	}
}},

{
"geometry": {
	"coordinates": [ 148.2119, 66.0666],
	"type": "Point"
},
"properties": {
	"abbrev": "HB51",
	"featureclass": "Airport",
	"gps_code": "HB51",
	"iata_code": "HB51",
	"location": "terminal",
	"name": "Утая",
	"natlscale": 8,
	"scalerank": 10,
	"type": "small",
	"wikipedia": "",
	"addition": {
   	"title": "Утая - HB51 - ГА",
       "id": "3628",
       "icon": "ls-gray-24.png"
	}
}},

{
"geometry": {
	"coordinates": [ 143.0467, 66.4773],
	"type": "Point"
},
"properties": {
	"abbrev": "Сысы",
	"featureclass": "Airport",
	"gps_code": "Сысы",
	"iata_code": "Сысы",
	"location": "terminal",
	"name": "Буор-Сысы",
	"natlscale": 8,
	"scalerank": 10,
	"type": "small",
	"wikipedia": "",
	"addition": {
   	"title": "Буор-Сысы - ZC7P - ГА",
       "id": "5681",
       "icon": "ls-green-24.png"
	}
}},

{
"geometry": {
	"coordinates": [ 167.9527, 65.1713],
	"type": "Point"
},
"properties": {
	"abbrev": "UHAC",
	"featureclass": "Airport",
	"gps_code": "UHAC",
	"iata_code": "UHAC",
	"location": "terminal",
	"name": "Чуванское",
	"natlscale": 8,
	"scalerank": 10,
	"type": "small",
	"wikipedia": "",
	"addition": {
   	"title": "Чуванское - UHAC - ГА",
       "id": "5736",
       "icon": "ls-green-24.png"
	}
}},

{
"geometry": {
	"coordinates": [ 168.8467, 65.5384],
	"type": "Point"
},
"properties": {
	"abbrev": "UHAL",
	"featureclass": "Airport",
	"gps_code": "UHAL",
	"iata_code": "UHAL",
	"location": "terminal",
	"name": "Ламутское",
	"natlscale": 8,
	"scalerank": 10,
	"type": "small",
	"wikipedia": "",
	"addition": {
   	"title": "Ламутское - UHAL - ГА",
       "id": "5739",
       "icon": "ls-gray-24.png"
	}
}},

{
"geometry": {
	"coordinates": [ 172.9853, 65.452],
	"type": "Point"
},
"properties": {
	"abbrev": "UHAE",
	"featureclass": "Airport",
	"gps_code": "UHAE",
	"iata_code": "UHAE",
	"location": "terminal",
	"name": "Снежное",
	"natlscale": 8,
	"scalerank": 10,
	"type": "small",
	"wikipedia": "",
	"addition": {
   	"title": "Снежное - UHAE - ГА",
       "id": "5743",
       "icon": "ls-gray-24.png"
	}
}},

{
"geometry": {
	"coordinates": [ 149.523, 62.5457],
	"type": "Point"
},
"properties": {
	"abbrev": "UHGE",
	"featureclass": "Airport",
	"gps_code": "UHGE",
	"iata_code": "UHGE",
	"location": "terminal",
	"name": "Ягодное",
	"natlscale": 8,
	"scalerank": 10,
	"type": "small",
	"wikipedia": "",
	"addition": {
   	"title": "Ягодное - UHGE - ГА",
       "id": "5753",
       "icon": "ls-green-24.png"
	}
}},

{
"geometry": {
	"coordinates": [ 157.7902, 61.8477],
	"type": "Point"
},
"properties": {
	"abbrev": "UHGU",
	"featureclass": "Airport",
	"gps_code": "UHGU",
	"iata_code": "UHGU",
	"location": "terminal",
	"name": "Таватум",
	"natlscale": 8,
	"scalerank": 10,
	"type": "small",
	"wikipedia": "",
	"addition": {
   	"title": "Таватум - UHGU - ГА",
       "id": "5764",
       "icon": "ls-gray-24.png"
	}
}},

{
"geometry": {
	"coordinates": [ 167.9817, 63.1782],
	"type": "Point"
},
"properties": {
	"abbrev": "UHQE",
	"featureclass": "Airport",
	"gps_code": "UHQE",
	"iata_code": "UHQE",
	"location": "terminal",
	"name": "Слаутное",
	"natlscale": 8,
	"scalerank": 10,
	"type": "small",
	"wikipedia": "",
	"addition": {
   	"title": "Слаутное - UHQE - ГА",
       "id": "5765",
       "icon": "ls-green-24.png"
	}
}},

{
"geometry": {
	"coordinates": [ 164.2435, 64.2231],
	"type": "Point"
},
"properties": {
	"abbrev": "UHLP",
	"featureclass": "Airport",
	"gps_code": "UHLP",
	"iata_code": "UHLP",
	"location": "terminal",
	"name": "Верхнее Пенжино",
	"natlscale": 8,
	"scalerank": 10,
	"type": "small",
	"wikipedia": "",
	"addition": {
   	"title": "Верхнее Пенжино - UHLP - ГА",
       "id": "5766",
       "icon": "ls-gray-24.png"
	}
}},

{
"geometry": {
	"coordinates": [ 174.2617, 64.8344],
	"type": "Point"
},
"properties": {
	"abbrev": "ZCH2",
	"featureclass": "Airport",
	"gps_code": "ZCH2",
	"iata_code": "ZCH2",
	"location": "terminal",
	"name": "Танюрер",
	"natlscale": 8,
	"scalerank": 10,
	"type": "small",
	"wikipedia": "",
	"addition": {
   	"title": "Танюрер - ZCH2 - ГА",
       "id": "5976",
       "icon": "ls-gray-24.png"
	}
}},

{
"geometry": {
	"coordinates": [ 171.0569, 64.1667],
	"type": "Point"
},
"properties": {
	"abbrev": "UHAW",
	"featureclass": "Airport",
	"gps_code": "UHAW",
	"iata_code": "UHAW",
	"location": "terminal",
	"name": "Ваеги",
	"natlscale": 8,
	"scalerank": 10,
	"type": "small",
	"wikipedia": "",
	"addition": {
   	"title": "Ваеги - UHAW - ГА",
       "id": "5980",
       "icon": "ls-green-24.png"
	}
}},

{
"geometry": {
	"coordinates": [ 152.3524, 62.4312],
	"type": "Point"
},
"properties": {
	"abbrev": "Cреднекан",
	"featureclass": "Airport",
	"gps_code": "Cреднекан",
	"iata_code": "Cреднекан",
	"location": "terminal",
	"name": "Усть-Cреднекан",
	"natlscale": 8,
	"scalerank": 10,
	"type": "small",
	"wikipedia": "",
	"addition": {
   	"title": "Усть-Cреднекан - ZCP6 - ГА",
       "id": "6077",
       "icon": "ls-gray-24.png"
	}
}},

{
"geometry": {
	"coordinates": [ 154.104, 63.9016],
	"type": "Point"
},
"properties": {
	"abbrev": "ZCP7",
	"featureclass": "Airport",
	"gps_code": "ZCP7",
	"iata_code": "ZCP7",
	"location": "terminal",
	"name": "Балыгычан",
	"natlscale": 8,
	"scalerank": 10,
	"type": "small",
	"wikipedia": "",
	"addition": {
   	"title": "Балыгычан - ZCP7 - ГА",
       "id": "6079",
       "icon": "ls-gray-24.png"
	}
}},

{
"geometry": {
	"coordinates": [ 150.7064, 65.7376],
	"type": "Point"
},
"properties": {
	"abbrev": "ZCQ6",
	"featureclass": "Airport",
	"gps_code": "ZCQ6",
	"iata_code": "ZCQ6",
	"location": "terminal",
	"name": "Зырянка (Западный)",
	"natlscale": 8,
	"scalerank": 10,
	"type": "small",
	"wikipedia": "",
	"addition": {
   	"title": "Зырянка (Западный) - ZCQ6 - ГА",
       "id": "6089",
       "icon": "ls-gray-24.png"
	}
}},

{
"geometry": {
	"coordinates": [ 157.7609, 65.3743],
	"type": "Point"
},
"properties": {
	"abbrev": "UHGR",
	"featureclass": "Airport",
	"gps_code": "UHGR",
	"iata_code": "UHGR",
	"location": "terminal",
	"name": "Рассоха",
	"natlscale": 8,
	"scalerank": 10,
	"type": "small",
	"wikipedia": "",
	"addition": {
   	"title": "Рассоха - UHGR - ГА",
       "id": "6657",
       "icon": "ls-green-24.png"
	}
}},

{
"geometry": {
	"coordinates": [ 159.9228, 63.7468],
	"type": "Point"
},
"properties": {
	"abbrev": "UHGK",
	"featureclass": "Airport",
	"gps_code": "UHGK",
	"iata_code": "UHGK",
	"location": "terminal",
	"name": "Новая Кубака",
	"natlscale": 8,
	"scalerank": 10,
	"type": "small",
	"wikipedia": "",
	"addition": {
   	"title": "Новая Кубака - UHGK - ГА",
       "id": "7095",
       "icon": "ls-green-24.png"
	}
}},

{
"geometry": {
	"coordinates": [ 142.0523, 64.2454],
	"type": "Point"
},
"properties": {
	"abbrev": "ZF8R",
	"featureclass": "Airport",
	"gps_code": "ZF8R",
	"iata_code": "ZF8R",
	"location": "terminal",
	"name": "Терют",
	"natlscale": 8,
	"scalerank": 10,
	"type": "small",
	"wikipedia": "",
	"addition": {
   	"title": "Терют - ZF8R - ГА",
       "id": "10538",
       "icon": "ls-gray-24.png"
	}
}},

{
"geometry": {
	"coordinates": [ 142.8644, 63.4463],
	"type": "Point"
},
"properties": {
	"abbrev": "Юрдя",
	"featureclass": "Airport",
	"gps_code": "Юрдя",
	"iata_code": "Юрдя",
	"location": "terminal",
	"name": "Берег-Юрдя",
	"natlscale": 8,
	"scalerank": 10,
	"type": "small",
	"wikipedia": "",
	"addition": {
   	"title": "Берег-Юрдя - ZF9U - ГА",
       "id": "10708",
       "icon": "ls-gray-24.png"
	}
}},

{
"geometry": {
	"coordinates": [ 149.072, 59.6965],
	"type": "Point"
},
"properties": {
	"abbrev": "ZA0W",
	"featureclass": "Airport",
	"gps_code": "ZA0W",
	"iata_code": "ZA0W",
	"location": "terminal",
	"name": "Балаганное",
	"natlscale": 8,
	"scalerank": 10,
	"type": "small",
	"wikipedia": "",
	"addition": {
   	"title": "Балаганное - ZA0W - ГА",
       "id": "69",
       "icon": "ls-gray-24.png"
	}
}},

{
"geometry": {
	"coordinates": [ 158.4535, 53.1702],
	"type": "Point"
},
"properties": {
	"abbrev": "UHPP",
	"featureclass": "Airport",
	"gps_code": "UHPP",
	"iata_code": "UHPP",
	"location": "terminal",
	"name": "Елизово",
	"natlscale": 8,
	"scalerank": 10,
	"type": "big",
	"wikipedia": "",
	"addition": {
   	"title": "Елизово - UHPP - ГА",
       "id": "263",
       "icon": "ls-green-24.png"
	}
}},

{
"geometry": {
	"coordinates": [ 158.7108, 55.938],
	"type": "Point"
},
"properties": {
	"abbrev": "UHQS",
	"featureclass": "Airport",
	"gps_code": "UHQS",
	"iata_code": "UHQS",
	"location": "terminal",
	"name": "Эссо",
	"natlscale": 8,
	"scalerank": 10,
	"type": "small",
	"wikipedia": "",
	"addition": {
   	"title": "Эссо - UHQS - ГА",
       "id": "275",
       "icon": "ls-green-24.png"
	}
}},

{
"geometry": {
	"coordinates": [ 158.7221, 53.0263],
	"type": "Point"
},
"properties": {
	"abbrev": "UHPH",
	"featureclass": "Airport",
	"gps_code": "UHPH",
	"iata_code": "UHPH",
	"location": "terminal",
	"name": "Халактырка",
	"natlscale": 8,
	"scalerank": 10,
	"type": "small",
	"wikipedia": "",
	"addition": {
   	"title": "Халактырка - UHPH - ГА",
       "id": "420",
       "icon": "ls-green-24.png"
	}
}},

{
"geometry": {
	"coordinates": [ 160.8046, 56.3098],
	"type": "Point"
},
"properties": {
	"abbrev": "XHPL",
	"featureclass": "Airport",
	"gps_code": "XHPL",
	"iata_code": "XHPL",
	"location": "terminal",
	"name": "Ключи Камчатские",
	"natlscale": 8,
	"scalerank": 10,
	"type": "small",
	"wikipedia": "",
	"addition": {
   	"title": "Ключи Камчатские - XHPL - МО",
       "id": "463",
       "icon": "ls-red-24.png"
	}
}},

{
"geometry": {
	"coordinates": [ 159.873, 56.0851],
	"type": "Point"
},
"properties": {
	"abbrev": "UHPO",
	"featureclass": "Airport",
	"gps_code": "UHPO",
	"iata_code": "UHPO",
	"location": "terminal",
	"name": "Козыревск",
	"natlscale": 8,
	"scalerank": 10,
	"type": "small",
	"wikipedia": "",
	"addition": {
   	"title": "Козыревск - UHPO - АОН",
       "id": "507",
       "icon": "ls-blue-24.png"
	}
}},

{
"geometry": {
	"coordinates": [ 150.7205, 59.911],
	"type": "Point"
},
"properties": {
	"abbrev": "UHMM",
	"featureclass": "Airport",
	"gps_code": "UHMM",
	"iata_code": "UHMM",
	"location": "terminal",
	"name": "Сокол",
	"natlscale": 8,
	"scalerank": 10,
	"type": "big",
	"wikipedia": "",
	"addition": {
   	"title": "Сокол - UHMM - ГА",
       "id": "620",
       "icon": "ls-green-24.png"
	}
}},

{
"geometry": {
	"coordinates": [ 150.9218, 59.6223],
	"type": "Point"
},
"properties": {
	"abbrev": "13",
	"featureclass": "Airport",
	"gps_code": "13",
	"iata_code": "13",
	"location": "terminal",
	"name": "Магадан-13",
	"natlscale": 8,
	"scalerank": 10,
	"type": "small",
	"wikipedia": "",
	"addition": {
   	"title": "Магадан-13 - UHMT - ГА",
       "id": "621",
       "icon": "ls-green-24.png"
	}
}},

{
"geometry": {
	"coordinates": [ 158.5506, 54.6816],
	"type": "Point"
},
"properties": {
	"abbrev": "UHPM",
	"featureclass": "Airport",
	"gps_code": "UHPM",
	"iata_code": "UHPM",
	"location": "terminal",
	"name": "Мильково",
	"natlscale": 8,
	"scalerank": 10,
	"type": "small",
	"wikipedia": "",
	"addition": {
   	"title": "Мильково - UHPM - ГА",
       "id": "667",
       "icon": "ls-green-24.png"
	}
}},

{
"geometry": {
	"coordinates": [ 158.3031, 53.0432],
	"type": "Point"
},
"properties": {
	"abbrev": "1",
	"featureclass": "Airport",
	"gps_code": "1",
	"iata_code": "1",
	"location": "terminal",
	"name": "Николаевка-1",
	"natlscale": 8,
	"scalerank": 10,
	"type": "small",
	"wikipedia": "",
	"addition": {
   	"title": "Николаевка-1 - ZA8U - АОН",
       "id": "719",
       "icon": "ls-gray-24.png"
	}
}},

{
"geometry": {
	"coordinates": [ 143.0567, 59.4106],
	"type": "Point"
},
"properties": {
	"abbrev": "UHOO",
	"featureclass": "Airport",
	"gps_code": "UHOO",
	"iata_code": "UHOO",
	"location": "terminal",
	"name": "Охотск",
	"natlscale": 8,
	"scalerank": 10,
	"type": "small",
	"wikipedia": "",
	"addition": {
   	"title": "Охотск - UHOO - ГА",
       "id": "775",
       "icon": "ls-green-24.png"
	}
}},

{
"geometry": {
	"coordinates": [ 143.278, 59.3785],
	"type": "Point"
},
"properties": {
	"abbrev": "2",
	"featureclass": "Airport",
	"gps_code": "2",
	"iata_code": "2",
	"location": "terminal",
	"name": "Охотск-2",
	"natlscale": 8,
	"scalerank": 10,
	"type": "small",
	"wikipedia": "",
	"addition": {
   	"title": "Охотск-2 - ZA9K - ГА",
       "id": "776",
       "icon": "ls-gray-24.png"
	}
}},

{
"geometry": {
	"coordinates": [ 163.0663, 59.2236],
	"type": "Point"
},
"properties": {
	"abbrev": "UHPD",
	"featureclass": "Airport",
	"gps_code": "UHPD",
	"iata_code": "UHPD",
	"location": "terminal",
	"name": "Оссора",
	"natlscale": 8,
	"scalerank": 10,
	"type": "small",
	"wikipedia": "",
	"addition": {
   	"title": "Оссора - UHPD - ГА",
       "id": "813",
       "icon": "ls-green-24.png"
	}
}},

{
"geometry": {
	"coordinates": [ 169.1114, 60.5562],
	"type": "Point"
},
"properties": {
	"abbrev": "UHPA",
	"featureclass": "Airport",
	"gps_code": "UHPA",
	"iata_code": "UHPA",
	"location": "terminal",
	"name": "Пахачи",
	"natlscale": 8,
	"scalerank": 10,
	"type": "small",
	"wikipedia": "",
	"addition": {
   	"title": "Пахачи - UHPA - ГА",
       "id": "826",
       "icon": "ls-green-24.png"
	}
}},

{
"geometry": {
	"coordinates": [ 159.8912, 59.0821],
	"type": "Point"
},
"properties": {
	"abbrev": "UHPL",
	"featureclass": "Airport",
	"gps_code": "UHPL",
	"iata_code": "UHPL",
	"location": "terminal",
	"name": "Палана",
	"natlscale": 8,
	"scalerank": 10,
	"type": "small",
	"wikipedia": "",
	"addition": {
   	"title": "Палана - UHPL - ГА",
       "id": "828",
       "icon": "ls-green-24.png"
	}
}},

{
"geometry": {
	"coordinates": [ 158.1516, 54.2945],
	"type": "Point"
},
"properties": {
	"abbrev": "XHPN",
	"featureclass": "Airport",
	"gps_code": "XHPN",
	"iata_code": "XHPN",
	"location": "terminal",
	"name": "Пущино",
	"natlscale": 8,
	"scalerank": 10,
	"type": "small",
	"wikipedia": "",
	"addition": {
   	"title": "Пущино - XHPN - МО",
       "id": "916",
       "icon": "ls-gray-24.png"
	}
}},

{
"geometry": {
	"coordinates": [ 154.6744, 60.1942],
	"type": "Point"
},
"properties": {
	"abbrev": "UHGT",
	"featureclass": "Airport",
	"gps_code": "UHGT",
	"iata_code": "UHGT",
	"location": "terminal",
	"name": "Тахтоямск",
	"natlscale": 8,
	"scalerank": 10,
	"type": "small",
	"wikipedia": "",
	"addition": {
   	"title": "Тахтоямск - UHGT - ГА",
       "id": "1144",
       "icon": "ls-green-24.png"
	}
}},

{
"geometry": {
	"coordinates": [ 158.7301, 57.7842],
	"type": "Point"
},
"properties": {
	"abbrev": "UHPG",
	"featureclass": "Airport",
	"gps_code": "UHPG",
	"iata_code": "UHPG",
	"location": "terminal",
	"name": "Тигиль",
	"natlscale": 8,
	"scalerank": 10,
	"type": "small",
	"wikipedia": "",
	"addition": {
   	"title": "Тигиль - UHPG - ГА",
       "id": "1170",
       "icon": "ls-green-24.png"
	}
}},

{
"geometry": {
	"coordinates": [ 166.0257, 60.385],
	"type": "Point"
},
"properties": {
	"abbrev": "UHPT",
	"featureclass": "Airport",
	"gps_code": "UHPT",
	"iata_code": "UHPT",
	"location": "terminal",
	"name": "Тиличики",
	"natlscale": 8,
	"scalerank": 10,
	"type": "small",
	"wikipedia": "",
	"addition": {
   	"title": "Тиличики - UHPT - ГА",
       "id": "1175",
       "icon": "ls-green-24.png"
	}
}},

{
"geometry": {
	"coordinates": [ 162.0208, 57.9289],
	"type": "Point"
},
"properties": {
	"abbrev": "ZAT9",
	"featureclass": "Airport",
	"gps_code": "ZAT9",
	"iata_code": "ZAT9",
	"location": "terminal",
	"name": "Укинский",
	"natlscale": 8,
	"scalerank": 10,
	"type": "small",
	"wikipedia": "",
	"addition": {
   	"title": "Укинский - ZAT9 - МО",
       "id": "1228",
       "icon": "ls-gray-24.png"
	}
}},

{
"geometry": {
	"coordinates": [ 162.6901, 56.2388],
	"type": "Point"
},
"properties": {
	"abbrev": "Камчатск",
	"featureclass": "Airport",
	"gps_code": "Камчатск",
	"iata_code": "Камчатск",
	"location": "terminal",
	"name": "Усть-Камчатск",
	"natlscale": 8,
	"scalerank": 10,
	"type": "small",
	"wikipedia": "",
	"addition": {
   	"title": "Усть-Камчатск - UHPK - ГА",
       "id": "1253",
       "icon": "ls-green-24.png"
	}
}},

{
"geometry": {
	"coordinates": [ 154.1543, 59.5819],
	"type": "Point"
},
"properties": {
	"abbrev": "UHGB",
	"featureclass": "Airport",
	"gps_code": "UHGB",
	"iata_code": "UHGB",
	"location": "terminal",
	"name": "Ямск",
	"natlscale": 8,
	"scalerank": 10,
	"type": "small",
	"wikipedia": "",
	"addition": {
   	"title": "Ямск - UHGB - ГА",
       "id": "1358",
       "icon": "ls-green-24.png"
	}
}},

{
"geometry": {
	"coordinates": [ 166.0486, 55.1782],
	"type": "Point"
},
"properties": {
	"abbrev": "UHPX",
	"featureclass": "Airport",
	"gps_code": "UHPX",
	"iata_code": "UHPX",
	"location": "terminal",
	"name": "Никольское",
	"natlscale": 8,
	"scalerank": 10,
	"type": "small",
	"wikipedia": "",
	"addition": {
   	"title": "Никольское - UHPX - ГА",
       "id": "1956",
       "icon": "ls-green-24.png"
	}
}},

{
"geometry": {
	"coordinates": [ 142.3018, 60.1017],
	"type": "Point"
},
"properties": {
	"abbrev": "UHOA",
	"featureclass": "Airport",
	"gps_code": "UHOA",
	"iata_code": "UHOA",
	"location": "terminal",
	"name": "Арка",
	"natlscale": 8,
	"scalerank": 10,
	"type": "small",
	"wikipedia": "",
	"addition": {
   	"title": "Арка - UHOA - ГА",
       "id": "2817",
       "icon": "ls-green-24.png"
	}
}},

{
"geometry": {
	"coordinates": [ 170.4947, 61.0133],
	"type": "Point"
},
"properties": {
	"abbrev": "UHPJ",
	"featureclass": "Airport",
	"gps_code": "UHPJ",
	"iata_code": "UHPJ",
	"location": "terminal",
	"name": "Ачайваям",
	"natlscale": 8,
	"scalerank": 10,
	"type": "small",
	"wikipedia": "",
	"addition": {
   	"title": "Ачайваям - UHPJ - ГА",
       "id": "3280",
       "icon": "ls-gray-24.png"
	}
}},

{
"geometry": {
	"coordinates": [ 159.8958, 53.667],
	"type": "Point"
},
"properties": {
	"abbrev": "ZC3S",
	"featureclass": "Airport",
	"gps_code": "ZC3S",
	"iata_code": "ZC3S",
	"location": "terminal",
	"name": "Река Жупанова",
	"natlscale": 8,
	"scalerank": 10,
	"type": "small",
	"wikipedia": "",
	"addition": {
   	"title": "Река Жупанова - ZC3S - ФСБ",
       "id": "5388",
       "icon": "ls-red-24.png"
	}
}},

{
"geometry": {
	"coordinates": [ 159.9668, 59.0581],
	"type": "Point"
},
"properties": {
	"abbrev": "2",
	"featureclass": "Airport",
	"gps_code": "2",
	"iata_code": "2",
	"location": "terminal",
	"name": "Палана-2",
	"natlscale": 8,
	"scalerank": 10,
	"type": "small",
	"wikipedia": "",
	"addition": {
   	"title": "Палана-2 - ZC3T - МО",
       "id": "5394",
       "icon": "ls-gray-24.png"
	}
}},

{
"geometry": {
	"coordinates": [ 151.3303, 59.5935],
	"type": "Point"
},
"properties": {
	"abbrev": "ZC60",
	"featureclass": "Airport",
	"gps_code": "ZC60",
	"iata_code": "ZC60",
	"location": "terminal",
	"name": "Ола",
	"natlscale": 8,
	"scalerank": 10,
	"type": "small",
	"wikipedia": "",
	"addition": {
   	"title": "Ола - ZC60 - ГА",
       "id": "5546",
       "icon": "ls-gray-24.png"
	}
}},

{
"geometry": {
	"coordinates": [ 157.7472, 53.0925],
	"type": "Point"
},
"properties": {
	"abbrev": "UHPI",
	"featureclass": "Airport",
	"gps_code": "UHPI",
	"iata_code": "UHPI",
	"location": "terminal",
	"name": "Начики",
	"natlscale": 8,
	"scalerank": 10,
	"type": "small",
	"wikipedia": "",
	"addition": {
   	"title": "Начики - UHPI - ГА",
       "id": "5565",
       "icon": "ls-gray-24.png"
	}
}},

{
"geometry": {
	"coordinates": [ 160.1485, 61.3661],
	"type": "Point"
},
"properties": {
	"abbrev": "UHGO",
	"featureclass": "Airport",
	"gps_code": "UHGO",
	"iata_code": "UHGO",
	"location": "terminal",
	"name": "Тополовка",
	"natlscale": 8,
	"scalerank": 10,
	"type": "small",
	"wikipedia": "",
	"addition": {
   	"title": "Тополовка - UHGO - ГА",
       "id": "5579",
       "icon": "ls-gray-24.png"
	}
}},

{
"geometry": {
	"coordinates": [ 142.7595, 60.7271],
	"type": "Point"
},
"properties": {
	"abbrev": "ZC8C",
	"featureclass": "Airport",
	"gps_code": "ZC8C",
	"iata_code": "ZC8C",
	"location": "terminal",
	"name": "Уега",
	"natlscale": 8,
	"scalerank": 10,
	"type": "small",
	"wikipedia": "",
	"addition": {
   	"title": "Уега - ZC8C - ГА",
       "id": "5717",
       "icon": "ls-gray-24.png"
	}
}},

{
"geometry": {
	"coordinates": [ 150.8912, 59.9137],
	"type": "Point"
},
"properties": {
	"abbrev": "ZC8Q",
	"featureclass": "Airport",
	"gps_code": "ZC8Q",
	"iata_code": "ZC8Q",
	"location": "terminal",
	"name": "Магадан (Северный)",
	"natlscale": 8,
	"scalerank": 10,
	"type": "small",
	"wikipedia": "",
	"addition": {
   	"title": "Магадан (Северный) - ZC8Q - ГА",
       "id": "5748",
       "icon": "ls-gray-24.png"
	}
}},

{
"geometry": {
	"coordinates": [ 159.3909, 58.2991],
	"type": "Point"
},
"properties": {
	"abbrev": "UHQC",
	"featureclass": "Airport",
	"gps_code": "UHQC",
	"iata_code": "UHQC",
	"location": "terminal",
	"name": "Воямполка",
	"natlscale": 8,
	"scalerank": 10,
	"type": "small",
	"wikipedia": "",
	"addition": {
   	"title": "Воямполка - UHQC - ГА",
       "id": "5758",
       "icon": "ls-gray-24.png"
	}
}},

{
"geometry": {
	"coordinates": [ 163.1807, 59.4986],
	"type": "Point"
},
"properties": {
	"abbrev": "ZC9S",
	"featureclass": "Airport",
	"gps_code": "ZC9S",
	"iata_code": "ZC9S",
	"location": "terminal",
	"name": "Тымлат",
	"natlscale": 8,
	"scalerank": 10,
	"type": "small",
	"wikipedia": "",
	"addition": {
   	"title": "Тымлат - ZC9S - ГА",
       "id": "5821",
       "icon": "ls-gray-24.png"
	}
}},

{
"geometry": {
	"coordinates": [ 148.6447, 59.7693],
	"type": "Point"
},
"properties": {
	"abbrev": "ZCB1",
	"featureclass": "Airport",
	"gps_code": "ZCB1",
	"iata_code": "ZCB1",
	"location": "terminal",
	"name": "Талон",
	"natlscale": 8,
	"scalerank": 10,
	"type": "small",
	"wikipedia": "",
	"addition": {
   	"title": "Талон - ZCB1 - ГА",
       "id": "5872",
       "icon": "ls-gray-24.png"
	}
}},

{
"geometry": {
	"coordinates": [ 162.3049, 58.5703],
	"type": "Point"
},
"properties": {
	"abbrev": "ZCH6",
	"featureclass": "Airport",
	"gps_code": "ZCH6",
	"iata_code": "ZCH6",
	"location": "terminal",
	"name": "Ивашка",
	"natlscale": 8,
	"scalerank": 10,
	"type": "small",
	"wikipedia": "",
	"addition": {
   	"title": "Ивашка - ZCH6 - ГА",
       "id": "5983",
       "icon": "ls-green-24.png"
	}
}},

{
"geometry": {
	"coordinates": [ 160.5351, 54.6058],
	"type": "Point"
},
"properties": {
	"abbrev": "ZCH9",
	"featureclass": "Airport",
	"gps_code": "ZCH9",
	"iata_code": "ZCH9",
	"location": "terminal",
	"name": "Кроноцкий",
	"natlscale": 8,
	"scalerank": 10,
	"type": "small",
	"wikipedia": "",
	"addition": {
   	"title": "Кроноцкий - ZCH9 - ГА",
       "id": "5986",
       "icon": "ls-gray-24.png"
	}
}},

{
"geometry": {
	"coordinates": [ 169.0762, 60.8162],
	"type": "Point"
},
"properties": {
	"abbrev": "ZCJ0",
	"featureclass": "Airport",
	"gps_code": "ZCJ0",
	"iata_code": "ZCJ0",
	"location": "terminal",
	"name": "Средние Пахачи",
	"natlscale": 8,
	"scalerank": 10,
	"type": "small",
	"wikipedia": "",
	"addition": {
   	"title": "Средние Пахачи - ZCJ0 - ГА",
       "id": "5989",
       "icon": "ls-green-24.png"
	}
}},

{
"geometry": {
	"coordinates": [ 160.0626, 56.2437],
	"type": "Point"
},
"properties": {
	"abbrev": "ZCJ4",
	"featureclass": "Airport",
	"gps_code": "ZCJ4",
	"iata_code": "ZCJ4",
	"location": "terminal",
	"name": "Майское",
	"natlscale": 8,
	"scalerank": 10,
	"type": "small",
	"wikipedia": "",
	"addition": {
   	"title": "Майское - ZCJ4 - ГА",
       "id": "6007",
       "icon": "ls-gray-24.png"
	}
}},

{
"geometry": {
	"coordinates": [ 149.6378, 61.1159],
	"type": "Point"
},
"properties": {
	"abbrev": "Омчуг",
	"featureclass": "Airport",
	"gps_code": "Омчуг",
	"iata_code": "Омчуг",
	"location": "terminal",
	"name": "Усть-Омчуг",
	"natlscale": 8,
	"scalerank": 10,
	"type": "small",
	"wikipedia": "",
	"addition": {
   	"title": "Усть-Омчуг - UHMV - ГА",
       "id": "6074",
       "icon": "ls-green-24.png"
	}
}},

{
"geometry": {
	"coordinates": [ 148.2043, 60.5156],
	"type": "Point"
},
"properties": {
	"abbrev": "ZCQ5",
	"featureclass": "Airport",
	"gps_code": "ZCQ5",
	"iata_code": "ZCQ5",
	"location": "terminal",
	"name": "Яна",
	"natlscale": 8,
	"scalerank": 10,
	"type": "small",
	"wikipedia": "",
	"addition": {
   	"title": "Яна - ZCQ5 - ГА",
       "id": "6088",
       "icon": "ls-gray-24.png"
	}
}},

{
"geometry": {
	"coordinates": [ 145.2086, 59.4144],
	"type": "Point"
},
"properties": {
	"abbrev": "ZCS3",
	"featureclass": "Airport",
	"gps_code": "ZCS3",
	"iata_code": "ZCS3",
	"location": "terminal",
	"name": "Шилки",
	"natlscale": 8,
	"scalerank": 10,
	"type": "small",
	"wikipedia": "",
	"addition": {
   	"title": "Шилки - ZCS3 - ГА",
       "id": "6108",
       "icon": "ls-gray-24.png"
	}
}},

{
"geometry": {
	"coordinates": [ 158.1783, 53.3499],
	"type": "Point"
},
"properties": {
	"abbrev": "ZES9",
	"featureclass": "Airport",
	"gps_code": "ZES9",
	"iata_code": "ZES9",
	"location": "terminal",
	"name": "Северные Коряки",
	"natlscale": 8,
	"scalerank": 10,
	"type": "small",
	"wikipedia": "",
	"addition": {
   	"title": "Северные Коряки - ZES9 - ГА",
       "id": "8632",
       "icon": "ls-green-24.png"
	}
}},

{
"geometry": {
	"coordinates": [ 158.3167, 53.0509],
	"type": "Point"
},
"properties": {
	"abbrev": "ZF3Z",
	"featureclass": "Airport",
	"gps_code": "ZF3Z",
	"iata_code": "ZF3Z",
	"location": "terminal",
	"name": "Николаевка",
	"natlscale": 8,
	"scalerank": 10,
	"type": "small",
	"wikipedia": "",
	"addition": {
   	"title": "Николаевка - ZF3Z - АОН",
       "id": "9704",
       "icon": "ls-blue-24.png"
	}
}},

{
"geometry": {
	"coordinates": [ 158.6648, 52.9138],
	"type": "Point"
},
"properties": {
	"abbrev": "ZF45",
	"featureclass": "Airport",
	"gps_code": "ZF45",
	"iata_code": "ZF45",
	"location": "terminal",
	"name": "Завойко",
	"natlscale": 8,
	"scalerank": 10,
	"type": "small",
	"wikipedia": "",
	"addition": {
   	"title": "Завойко - ZF45 - МО",
       "id": "9746",
       "icon": "ls-gray-24.png"
	}
}},

{
"geometry": {
	"coordinates": [ 133.2723, 44.1425],
	"type": "Point"
},
"properties": {
	"abbrev": "UHWA",
	"featureclass": "Airport",
	"gps_code": "UHWA",
	"iata_code": "UHWA",
	"location": "terminal",
	"name": "Арсеньев",
	"natlscale": 8,
	"scalerank": 10,
	"type": "small",
	"wikipedia": "",
	"addition": {
   	"title": "Арсеньев - UHWA - ЭА",
       "id": "48",
       "icon": "ls-red-24.png"
	}
}},

{
"geometry": {
	"coordinates": [ 147.6219, 44.9195],
	"type": "Point"
},
"properties": {
	"abbrev": "UHSB",
	"featureclass": "Airport",
	"gps_code": "UHSB",
	"iata_code": "UHSB",
	"location": "terminal",
	"name": "Буревестник",
	"natlscale": 8,
	"scalerank": 10,
	"type": "small",
	"wikipedia": "",
	"addition": {
   	"title": "Буревестник - UHSB - МО",
       "id": "172",
       "icon": "ls-red-24.png"
	}
}},

{
"geometry": {
	"coordinates": [ 132.5453, 44.3225],
	"type": "Point"
},
"properties": {
	"abbrev": "XHII",
	"featureclass": "Airport",
	"gps_code": "XHII",
	"iata_code": "XHII",
	"location": "terminal",
	"name": "Черниговка",
	"natlscale": 8,
	"scalerank": 10,
	"type": "small",
	"wikipedia": "",
	"addition": {
   	"title": "Черниговка - XHII - МО",
       "id": "200",
       "icon": "ls-red-24.png"
	}
}},

{
"geometry": {
	"coordinates": [ 132.0589, 43.3484],
	"type": "Point"
},
"properties": {
	"abbrev": "XHIU",
	"featureclass": "Airport",
	"gps_code": "XHIU",
	"iata_code": "XHIU",
	"location": "terminal",
	"name": "Центральная Угловая",
	"natlscale": 8,
	"scalerank": 10,
	"type": "small",
	"wikipedia": "",
	"addition": {
   	"title": "Центральная Угловая - XHIU - МО",
       "id": "217",
       "icon": "ls-red-24.png"
	}
}},

{
"geometry": {
	"coordinates": [ 135.4898, 44.5588],
	"type": "Point"
},
"properties": {
	"abbrev": "UHWG",
	"featureclass": "Airport",
	"gps_code": "UHWG",
	"iata_code": "UHWG",
	"location": "terminal",
	"name": "Дальнегорск",
	"natlscale": 8,
	"scalerank": 10,
	"type": "small",
	"wikipedia": "",
	"addition": {
   	"title": "Дальнегорск - UHWG - ГА",
       "id": "218",
       "icon": "ls-green-24.png"
	}
}},

{
"geometry": {
	"coordinates": [ 131.8053, 44.0961],
	"type": "Point"
},
"properties": {
	"abbrev": "XHIG",
	"featureclass": "Airport",
	"gps_code": "XHIG",
	"iata_code": "XHIG",
	"location": "terminal",
	"name": "Галенки",
	"natlscale": 8,
	"scalerank": 10,
	"type": "small",
	"wikipedia": "",
	"addition": {
   	"title": "Галенки - XHIG - МО",
       "id": "287",
       "icon": "ls-red-24.png"
	}
}},

{
"geometry": {
	"coordinates": [ 132.03, 44.7496],
	"type": "Point"
},
"properties": {
	"abbrev": "Рыболов",
	"featureclass": "Airport",
	"gps_code": "Рыболов",
	"iata_code": "Рыболов",
	"location": "terminal",
	"name": "Камень-Рыболов",
	"natlscale": 8,
	"scalerank": 10,
	"type": "small",
	"wikipedia": "",
	"addition": {
   	"title": "Камень-Рыболов - XHIR - ГА",
       "id": "376",
       "icon": "ls-green-24.png"
	}
}},

{
"geometry": {
	"coordinates": [ 135.029, 44.2726],
	"type": "Point"
},
"properties": {
	"abbrev": "UHWK",
	"featureclass": "Airport",
	"gps_code": "UHWK",
	"iata_code": "UHWK",
	"location": "terminal",
	"name": "Кавалерово",
	"natlscale": 8,
	"scalerank": 10,
	"type": "small",
	"wikipedia": "",
	"addition": {
   	"title": "Кавалерово - UHWK - ГА",
       "id": "405",
       "icon": "ls-green-24.png"
	}
}},

{
"geometry": {
	"coordinates": [ 132.1255, 44.4504],
	"type": "Point"
},
"properties": {
	"abbrev": "XHIL",
	"featureclass": "Airport",
	"gps_code": "XHIL",
	"iata_code": "XHIL",
	"location": "terminal",
	"name": "Хороль",
	"natlscale": 8,
	"scalerank": 10,
	"type": "small",
	"wikipedia": "",
	"addition": {
   	"title": "Хороль - XHIL - МО",
       "id": "434",
       "icon": "ls-gray-24.png"
	}
}},

{
"geometry": {
	"coordinates": [ 132.8865, 44.6127],
	"type": "Point"
},
"properties": {
	"abbrev": "XHIH",
	"featureclass": "Airport",
	"gps_code": "XHIH",
	"iata_code": "XHIH",
	"location": "terminal",
	"name": "Хвалынка",
	"natlscale": 8,
	"scalerank": 10,
	"type": "small",
	"wikipedia": "",
	"addition": {
   	"title": "Хвалынка - XHIH - МО",
       "id": "438",
       "icon": "ls-gray-24.png"
	}
}},

{
"geometry": {
	"coordinates": [ 134.0483, 44.497],
	"type": "Point"
},
"properties": {
	"abbrev": "XHIK",
	"featureclass": "Airport",
	"gps_code": "XHIK",
	"iata_code": "XHIK",
	"location": "terminal",
	"name": "Кокшаровка",
	"natlscale": 8,
	"scalerank": 10,
	"type": "small",
	"wikipedia": "",
	"addition": {
   	"title": "Кокшаровка - XHIK - ГА",
       "id": "468",
       "icon": "ls-gray-24.png"
	}
}},

{
"geometry": {
	"coordinates": [ 132.4235, 43.4241],
	"type": "Point"
},
"properties": {
	"abbrev": "ZA83",
	"featureclass": "Airport",
	"gps_code": "ZA83",
	"iata_code": "ZA83",
	"location": "terminal",
	"name": "Майхэ",
	"natlscale": 8,
	"scalerank": 10,
	"type": "small",
	"wikipedia": "",
	"addition": {
   	"title": "Майхэ - ZA83 - ДОСААФ",
       "id": "649",
       "icon": "ls-gray-24.png"
	}
}},

{
"geometry": {
	"coordinates": [ 145.685, 43.9611],
	"type": "Point"
},
"properties": {
	"abbrev": "UHSM",
	"featureclass": "Airport",
	"gps_code": "UHSM",
	"iata_code": "UHSM",
	"location": "terminal",
	"name": "Менделеево",
	"natlscale": 8,
	"scalerank": 10,
	"type": "small",
	"wikipedia": "",
	"addition": {
   	"title": "Менделеево - UHSM - ГА",
       "id": "657",
       "icon": "ls-green-24.png"
	}
}},

{
"geometry": {
	"coordinates": [ 133.191, 43.0864],
	"type": "Point"
},
"properties": {
	"abbrev": "XHWE",
	"featureclass": "Airport",
	"gps_code": "XHWE",
	"iata_code": "XHWE",
	"location": "terminal",
	"name": "Приморская",
	"natlscale": 8,
	"scalerank": 10,
	"type": "small",
	"wikipedia": "",
	"addition": {
   	"title": "Приморская - XHWE - МО",
       "id": "717",
       "icon": "ls-red-24.png"
	}
}},

{
"geometry": {
	"coordinates": [ 132.5572, 43.3483],
	"type": "Point"
},
"properties": {
	"abbrev": "ZA99",
	"featureclass": "Airport",
	"gps_code": "ZA99",
	"iata_code": "ZA99",
	"location": "terminal",
	"name": "Новороссия",
	"natlscale": 8,
	"scalerank": 10,
	"type": "small",
	"wikipedia": "",
	"addition": {
   	"title": "Новороссия - ZA99 - АОН",
       "id": "748",
       "icon": "ls-blue-24.png"
	}
}},

{
"geometry": {
	"coordinates": [ 132.145, 43.3678],
	"type": "Point"
},
"properties": {
	"abbrev": "UHWL",
	"featureclass": "Airport",
	"gps_code": "UHWL",
	"iata_code": "UHWL",
	"location": "terminal",
	"name": "Озерные Ключи",
	"natlscale": 8,
	"scalerank": 10,
	"type": "small",
	"wikipedia": "",
	"addition": {
   	"title": "Озерные Ключи - UHWL - ГА",
       "id": "822",
       "icon": "ls-green-24.png"
	}
}},

{
"geometry": {
	"coordinates": [ 132.2158, 44.0179],
	"type": "Point"
},
"properties": {
	"abbrev": "XHIO",
	"featureclass": "Airport",
	"gps_code": "XHIO",
	"iata_code": "XHIO",
	"location": "terminal",
	"name": "Озерная Падь",
	"natlscale": 8,
	"scalerank": 10,
	"type": "small",
	"wikipedia": "",
	"addition": {
   	"title": "Озерная Падь - XHIO - МО",
       "id": "823",
       "icon": "ls-gray-24.png"
	}
}},

{
"geometry": {
	"coordinates": [ 136.2917, 44.815],
	"type": "Point"
},
"properties": {
	"abbrev": "UHWP",
	"featureclass": "Airport",
	"gps_code": "UHWP",
	"iata_code": "UHWP",
	"location": "terminal",
	"name": "Пластун",
	"natlscale": 8,
	"scalerank": 10,
	"type": "small",
	"wikipedia": "",
	"addition": {
   	"title": "Пластун - UHWP - ГА",
       "id": "868",
       "icon": "ls-green-24.png"
	}
}},

{
"geometry": {
	"coordinates": [ 131.9389, 43.2075],
	"type": "Point"
},
"properties": {
	"abbrev": "ZAI7",
	"featureclass": "Airport",
	"gps_code": "ZAI7",
	"iata_code": "ZAI7",
	"location": "terminal",
	"name": "Седанка",
	"natlscale": 8,
	"scalerank": 10,
	"type": "small",
	"wikipedia": "",
	"addition": {
   	"title": "Седанка - ZAI7 - МО",
       "id": "997",
       "icon": "ls-gray-24.png"
	}
}},

{
"geometry": {
	"coordinates": [ 135.2254, 43.907],
	"type": "Point"
},
"properties": {
	"abbrev": "UHWF",
	"featureclass": "Airport",
	"gps_code": "UHWF",
	"iata_code": "UHWF",
	"location": "terminal",
	"name": "Серафимовка",
	"natlscale": 8,
	"scalerank": 10,
	"type": "small",
	"wikipedia": "",
	"addition": {
   	"title": "Серафимовка - UHWF - ГА",
       "id": "1007",
       "icon": "ls-gray-24.png"
	}
}},

{
"geometry": {
	"coordinates": [ 133.3462, 43.3048],
	"type": "Point"
},
"properties": {
	"abbrev": "UHWS",
	"featureclass": "Airport",
	"gps_code": "UHWS",
	"iata_code": "UHWS",
	"location": "terminal",
	"name": "Сергеевка",
	"natlscale": 8,
	"scalerank": 10,
	"type": "small",
	"wikipedia": "",
	"addition": {
   	"title": "Сергеевка - UHWS - ГА",
       "id": "1008",
       "icon": "ls-green-24.png"
	}
}},

{
"geometry": {
	"coordinates": [ 133.8688, 44.0833],
	"type": "Point"
},
"properties": {
	"abbrev": "XHIS",
	"featureclass": "Airport",
	"gps_code": "XHIS",
	"iata_code": "XHIS",
	"location": "terminal",
	"name": "Соколовка",
	"natlscale": 8,
	"scalerank": 10,
	"type": "small",
	"wikipedia": "",
	"addition": {
   	"title": "Соколовка - XHIS - МО",
       "id": "1077",
       "icon": "ls-red-24.png"
	}
}},

{
"geometry": {
	"coordinates": [ 136.5913, 45.0825],
	"type": "Point"
},
"properties": {
	"abbrev": "UHWT",
	"featureclass": "Airport",
	"gps_code": "UHWT",
	"iata_code": "UHWT",
	"location": "terminal",
	"name": "Терней",
	"natlscale": 8,
	"scalerank": 10,
	"type": "small",
	"wikipedia": "",
	"addition": {
   	"title": "Терней - UHWT - ГА",
       "id": "1165",
       "icon": "ls-green-24.png"
	}
}},

{
"geometry": {
	"coordinates": [ 132.01, 43.7503],
	"type": "Point"
},
"properties": {
	"abbrev": "UHWU",
	"featureclass": "Airport",
	"gps_code": "UHWU",
	"iata_code": "UHWU",
	"location": "terminal",
	"name": "Барановский",
	"natlscale": 8,
	"scalerank": 10,
	"type": "small",
	"wikipedia": "",
	"addition": {
   	"title": "Барановский - UHWU - ГА",
       "id": "1250",
       "icon": "ls-gray-24.png"
	}
}},

{
"geometry": {
	"coordinates": [ 133.4117, 44.2618],
	"type": "Point"
},
"properties": {
	"abbrev": "XHIF",
	"featureclass": "Airport",
	"gps_code": "XHIF",
	"iata_code": "XHIF",
	"location": "terminal",
	"name": "Варфоломеевка",
	"natlscale": 8,
	"scalerank": 10,
	"type": "small",
	"wikipedia": "",
	"addition": {
   	"title": "Варфоломеевка - XHIF - МО",
       "id": "1277",
       "icon": "ls-red-24.png"
	}
}},

{
"geometry": {
	"coordinates": [ 132.148, 43.399],
	"type": "Point"
},
"properties": {
	"abbrev": "UHWW",
	"featureclass": "Airport",
	"gps_code": "UHWW",
	"iata_code": "UHWW",
	"location": "terminal",
	"name": "Кневичи",
	"natlscale": 8,
	"scalerank": 10,
	"type": "big",
	"wikipedia": "",
	"addition": {
   	"title": "Кневичи - UHWW - ГА",
       "id": "1313",
       "icon": "ls-green-24.png"
	}
}},

{
"geometry": {
	"coordinates": [ 132.725, 44.5606],
	"type": "Point"
},
"properties": {
	"abbrev": "XHIW",
	"featureclass": "Airport",
	"gps_code": "XHIW",
	"iata_code": "XHIW",
	"location": "terminal",
	"name": "Воскресенка",
	"natlscale": 8,
	"scalerank": 10,
	"type": "small",
	"wikipedia": "",
	"addition": {
   	"title": "Воскресенка - XHIW - МО",
       "id": "1333",
       "icon": "ls-gray-24.png"
	}
}},

{
"geometry": {
	"coordinates": [ 131.925, 43.9075],
	"type": "Point"
},
"properties": {
	"abbrev": "XHWV",
	"featureclass": "Airport",
	"gps_code": "XHWV",
	"iata_code": "XHWV",
	"location": "terminal",
	"name": "Воздвиженка",
	"natlscale": 8,
	"scalerank": 10,
	"type": "small",
	"wikipedia": "",
	"addition": {
   	"title": "Воздвиженка - XHWV - МО",
       "id": "1335",
       "icon": "ls-red-24.png"
	}
}},

{
"geometry": {
	"coordinates": [ 132.2043, 44.2158],
	"type": "Point"
},
"properties": {
	"abbrev": "XHIN",
	"featureclass": "Airport",
	"gps_code": "XHIN",
	"iata_code": "XHIN",
	"location": "terminal",
	"name": "Вознесенка",
	"natlscale": 8,
	"scalerank": 10,
	"type": "small",
	"wikipedia": "",
	"addition": {
   	"title": "Вознесенка - XHIN - МО",
       "id": "1339",
       "icon": "ls-gray-24.png"
	}
}},

{
"geometry": {
	"coordinates": [ 133.1154, 42.9607],
	"type": "Point"
},
"properties": {
	"abbrev": "XHWI",
	"featureclass": "Airport",
	"gps_code": "XHWI",
	"iata_code": "XHWI",
	"location": "terminal",
	"name": "Золотая Долина",
	"natlscale": 8,
	"scalerank": 10,
	"type": "small",
	"wikipedia": "",
	"addition": {
   	"title": "Золотая Долина - XHWI - МО",
       "id": "1399",
       "icon": "ls-gray-24.png"
	}
}},

{
"geometry": {
	"coordinates": [ 132.5874, 43.2188],
	"type": "Point"
},
"properties": {
	"abbrev": "XHWN",
	"featureclass": "Airport",
	"gps_code": "XHWN",
	"iata_code": "XHWN",
	"location": "terminal",
	"name": "Новонежино",
	"natlscale": 8,
	"scalerank": 10,
	"type": "small",
	"wikipedia": "",
	"addition": {
   	"title": "Новонежино - XHWN - МО",
       "id": "1618",
       "icon": "ls-red-24.png"
	}
}},

{
"geometry": {
	"coordinates": [ 131.541, 43.0286],
	"type": "Point"
},
"properties": {
	"abbrev": "HA5E",
	"featureclass": "Airport",
	"gps_code": "HA5E",
	"iata_code": "HA5E",
	"location": "terminal",
	"name": "Сухая Речка",
	"natlscale": 8,
	"scalerank": 10,
	"type": "small",
	"wikipedia": "",
	"addition": {
   	"title": "Сухая Речка - HA5E - МО",
       "id": "1735",
       "icon": "ls-gray-24.png"
	}
}},

{
"geometry": {
	"coordinates": [ 132.1025, 43.1993],
	"type": "Point"
},
"properties": {
	"abbrev": "ZB23",
	"featureclass": "Airport",
	"gps_code": "ZB23",
	"iata_code": "ZB23",
	"location": "terminal",
	"name": "Лазурная",
	"natlscale": 8,
	"scalerank": 10,
	"type": "small",
	"wikipedia": "",
	"addition": {
   	"title": "Лазурная - ZB23 - АОН",
       "id": "1931",
       "icon": "ls-blue-24.png"
	}
}},

{
"geometry": {
	"coordinates": [ 132.458, 43.4592],
	"type": "Point"
},
"properties": {
	"abbrev": "UHTE",
	"featureclass": "Airport",
	"gps_code": "UHTE",
	"iata_code": "UHTE",
	"location": "terminal",
	"name": "Многоудобное",
	"natlscale": 8,
	"scalerank": 10,
	"type": "small",
	"wikipedia": "",
	"addition": {
   	"title": "Многоудобное - UHTE - ГА",
       "id": "3286",
       "icon": "ls-gray-24.png"
	}
}},

{
"geometry": {
	"coordinates": [ 133.8827, 43.4162],
	"type": "Point"
},
"properties": {
	"abbrev": "UHWZ",
	"featureclass": "Airport",
	"gps_code": "UHWZ",
	"iata_code": "UHWZ",
	"location": "terminal",
	"name": "Лазо",
	"natlscale": 8,
	"scalerank": 10,
	"type": "small",
	"wikipedia": "",
	"addition": {
   	"title": "Лазо - UHWZ - ГА",
       "id": "5280",
       "icon": "ls-gray-24.png"
	}
}},

{
"geometry": {
	"coordinates": [ 133.9043, 42.9216],
	"type": "Point"
},
"properties": {
	"abbrev": "UHTR",
	"featureclass": "Airport",
	"gps_code": "UHTR",
	"iata_code": "UHTR",
	"location": "terminal",
	"name": "Преображение",
	"natlscale": 8,
	"scalerank": 10,
	"type": "small",
	"wikipedia": "",
	"addition": {
   	"title": "Преображение - UHTR - ГА",
       "id": "5448",
       "icon": "ls-green-24.png"
	}
}},

{
"geometry": {
	"coordinates": [ 133.2613, 44.2652],
	"type": "Point"
},
"properties": {
	"abbrev": "UHBL",
	"featureclass": "Airport",
	"gps_code": "UHBL",
	"iata_code": "UHBL",
	"location": "terminal",
	"name": "Северный",
	"natlscale": 8,
	"scalerank": 10,
	"type": "small",
	"wikipedia": "",
	"addition": {
   	"title": "Северный - UHBL - ГА",
       "id": "6338",
       "icon": "ls-gray-24.png"
	}
}},

{
"geometry": {
	"coordinates": [ 133.6837, 42.8965],
	"type": "Point"
},
"properties": {
	"abbrev": "UHTI",
	"featureclass": "Airport",
	"gps_code": "UHTI",
	"iata_code": "UHTI",
	"location": "terminal",
	"name": "Киёвка",
	"natlscale": 8,
	"scalerank": 10,
	"type": "small",
	"wikipedia": "",
	"addition": {
   	"title": "Киёвка - UHTI - ГА",
       "id": "6339",
       "icon": "ls-gray-24.png"
	}
}},

{
"geometry": {
	"coordinates": [ 132.3406, 43.1547],
	"type": "Point"
},
"properties": {
	"abbrev": "ZD2G",
	"featureclass": "Airport",
	"gps_code": "ZD2G",
	"iata_code": "ZD2G",
	"location": "terminal",
	"name": "Петровка",
	"natlscale": 8,
	"scalerank": 10,
	"type": "small",
	"wikipedia": "",
	"addition": {
   	"title": "Петровка - ZD2G - МО",
       "id": "6421",
       "icon": "ls-gray-24.png"
	}
}},

{
"geometry": {
	"coordinates": [ 132.4527, 43.2433],
	"type": "Point"
},
"properties": {
	"abbrev": "ZD2H",
	"featureclass": "Airport",
	"gps_code": "ZD2H",
	"iata_code": "ZD2H",
	"location": "terminal",
	"name": "Романовка",
	"natlscale": 8,
	"scalerank": 10,
	"type": "small",
	"wikipedia": "",
	"addition": {
   	"title": "Романовка - ZD2H - МО",
       "id": "6426",
       "icon": "ls-gray-24.png"
	}
}},

{
"geometry": {
	"coordinates": [ 131.4344, 44.374],
	"type": "Point"
},
"properties": {
	"abbrev": "Оренбургский",
	"featureclass": "Airport",
	"gps_code": "Оренбургский",
	"iata_code": "Оренбургский",
	"location": "terminal",
	"name": "Барано-Оренбургский",
	"natlscale": 8,
	"scalerank": 10,
	"type": "small",
	"wikipedia": "",
	"addition": {
   	"title": "Барано-Оренбургский - XHWO - МО",
       "id": "6453",
       "icon": "ls-gray-24.png"
	}
}},

{
"geometry": {
	"coordinates": [ 132.0329, 43.9021],
	"type": "Point"
},
"properties": {
	"abbrev": "XHWM",
	"featureclass": "Airport",
	"gps_code": "XHWM",
	"iata_code": "XHWM",
	"location": "terminal",
	"name": "Коммуна Ленина",
	"natlscale": 8,
	"scalerank": 10,
	"type": "small",
	"wikipedia": "",
	"addition": {
   	"title": "Коммуна Ленина - XHWM - МО",
       "id": "6462",
       "icon": "ls-gray-24.png"
	}
}},

{
"geometry": {
	"coordinates": [ 133.0922, 44.1819],
	"type": "Point"
},
"properties": {
	"abbrev": "XHIE",
	"featureclass": "Airport",
	"gps_code": "XHIE",
	"iata_code": "XHIE",
	"location": "terminal",
	"name": "Чернышевка",
	"natlscale": 8,
	"scalerank": 10,
	"type": "small",
	"wikipedia": "",
	"addition": {
   	"title": "Чернышевка - XHIE - МО",
       "id": "6465",
       "icon": "ls-gray-24.png"
	}
}},

{
"geometry": {
	"coordinates": [ 132.0416, 43.3331],
	"type": "Point"
},
"properties": {
	"abbrev": "ZD6N",
	"featureclass": "Airport",
	"gps_code": "ZD6N",
	"iata_code": "ZD6N",
	"location": "terminal",
	"name": "Южная Угловая",
	"natlscale": 8,
	"scalerank": 10,
	"type": "small",
	"wikipedia": "",
	"addition": {
   	"title": "Южная Угловая - ZD6N - МО",
       "id": "6753",
       "icon": "ls-gray-24.png"
	}
}},

{
"geometry": {
	"coordinates": [ 134.6256, 43.3008],
	"type": "Point"
},
"properties": {
	"abbrev": "ZE3Y",
	"featureclass": "Airport",
	"gps_code": "ZE3Y",
	"iata_code": "ZE3Y",
	"location": "terminal",
	"name": "Милоградово",
	"natlscale": 8,
	"scalerank": 10,
	"type": "small",
	"wikipedia": "",
	"addition": {
   	"title": "Милоградово - ZE3Y - ГА",
       "id": "7757",
       "icon": "ls-gray-24.png"
	}
}},

{
"geometry": {
	"coordinates": [ 147.6365, 44.9219],
	"type": "Point"
},
"properties": {
	"abbrev": "ZF81",
	"featureclass": "Airport",
	"gps_code": "ZF81",
	"iata_code": "ZF81",
	"location": "terminal",
	"name": "Эторофу",
	"natlscale": 8,
	"scalerank": 10,
	"type": "small",
	"wikipedia": "",
	"addition": {
   	"title": "Эторофу - ZF81 - МО",
       "id": "10240",
       "icon": "ls-gray-24.png"
	}
}},

{
"geometry": {
	"coordinates": [ 132.1408, 43.3708],
	"type": "Point"
},
"properties": {
	"abbrev": "Акваресурсы",
	"featureclass": "Airport",
	"gps_code": "Акваресурсы",
	"iata_code": "Акваресурсы",
	"location": "terminal",
	"name": "ОЗК-Акваресурсы",
	"natlscale": 8,
	"scalerank": 10,
	"type": "small",
	"wikipedia": "",
	"addition": {
   	"title": "ОЗК-Акваресурсы - UHWQ - ГА",
       "id": "10581",
       "icon": "ls-green-24.png"
	}
}},

{
"geometry": {
	"coordinates": [ 135.4164, 48.4117],
	"type": "Point"
},
"properties": {
	"abbrev": "UHHS",
	"featureclass": "Airport",
	"gps_code": "UHHS",
	"iata_code": "UHHS",
	"location": "terminal",
	"name": "Калинка",
	"natlscale": 8,
	"scalerank": 10,
	"type": "small",
	"wikipedia": "",
	"addition": {
   	"title": "Калинка - UHHS - АОН",
       "id": "1",
       "icon": "ls-blue-24.png"
	}
}},

{
"geometry": {
	"coordinates": [ 137.6727, 45.8413],
	"type": "Point"
},
"properties": {
	"abbrev": "UHTG",
	"featureclass": "Airport",
	"gps_code": "UHTG",
	"iata_code": "UHTG",
	"location": "terminal",
	"name": "Амгу",
	"natlscale": 8,
	"scalerank": 10,
	"type": "small",
	"wikipedia": "",
	"addition": {
   	"title": "Амгу - UHTG - ГА",
       "id": "29",
       "icon": "ls-green-24.png"
	}
}},

{
"geometry": {
	"coordinates": [ 133.0431, 48.582],
	"type": "Point"
},
"properties": {
	"abbrev": "UHHB",
	"featureclass": "Airport",
	"gps_code": "UHHB",
	"iata_code": "UHHB",
	"location": "terminal",
	"name": "Желтый Яр",
	"natlscale": 8,
	"scalerank": 10,
	"type": "small",
	"wikipedia": "",
	"addition": {
   	"title": "Желтый Яр - UHHB - ГА",
       "id": "123",
       "icon": "ls-green-24.png"
	}
}},

{
"geometry": {
	"coordinates": [ 132.6582, 48.4609],
	"type": "Point"
},
"properties": {
	"abbrev": "XHHB",
	"featureclass": "Airport",
	"gps_code": "XHHB",
	"iata_code": "XHHB",
	"location": "terminal",
	"name": "Бирофельд",
	"natlscale": 8,
	"scalerank": 10,
	"type": "small",
	"wikipedia": "",
	"addition": {
   	"title": "Бирофельд - XHHB - МО",
       "id": "124",
       "icon": "ls-gray-24.png"
	}
}},

{
"geometry": {
	"coordinates": [ 135.1508, 48.4626],
	"type": "Point"
},
"properties": {
	"abbrev": "XHHA",
	"featureclass": "Airport",
	"gps_code": "XHHA",
	"iata_code": "XHHA",
	"location": "terminal",
	"name": "Центральный",
	"natlscale": 8,
	"scalerank": 10,
	"type": "small",
	"wikipedia": "",
	"addition": {
   	"title": "Центральный - XHHA - МЧС",
       "id": "143",
       "icon": "ls-violet-24.png"
	}
}},

{
"geometry": {
	"coordinates": [ 133.7367, 45.8785],
	"type": "Point"
},
"properties": {
	"abbrev": "UHHD",
	"featureclass": "Airport",
	"gps_code": "UHHD",
	"iata_code": "UHHD",
	"location": "terminal",
	"name": "Дальнереченск",
	"natlscale": 8,
	"scalerank": 10,
	"type": "small",
	"wikipedia": "",
	"addition": {
   	"title": "Дальнереченск - UHHD - ГА",
       "id": "219",
       "icon": "ls-green-24.png"
	}
}},

{
"geometry": {
	"coordinates": [ 135.2238, 48.3963],
	"type": "Point"
},
"properties": {
	"abbrev": "я",
	"featureclass": "Airport",
	"gps_code": "я",
	"iata_code": "я",
	"location": "terminal",
	"name": "Гаровка 2-я",
	"natlscale": 8,
	"scalerank": 10,
	"type": "small",
	"wikipedia": "",
	"addition": {
   	"title": "Гаровка 2-я - XHHG - МО",
       "id": "289",
       "icon": "ls-red-24.png"
	}
}},

{
"geometry": {
	"coordinates": [ 150.5273, 46.2076],
	"type": "Point"
},
"properties": {
	"abbrev": "ZA55",
	"featureclass": "Airport",
	"gps_code": "ZA55",
	"iata_code": "ZA55",
	"location": "terminal",
	"name": "Кастрикум",
	"natlscale": 8,
	"scalerank": 10,
	"type": "small",
	"wikipedia": "",
	"addition": {
   	"title": "Кастрикум - ZA55 - МО",
       "id": "404",
       "icon": "ls-gray-24.png"
	}
}},

{
"geometry": {
	"coordinates": [ 135.1527, 48.5256],
	"type": "Point"
},
"properties": {
	"abbrev": "UHHT",
	"featureclass": "Airport",
	"gps_code": "UHHT",
	"iata_code": "UHHT",
	"location": "terminal",
	"name": "МВЛ",
	"natlscale": 8,
	"scalerank": 10,
	"type": "small",
	"wikipedia": "",
	"addition": {
   	"title": "МВЛ - UHHT - ГА",
       "id": "418",
       "icon": "ls-green-24.png"
	}
}},

{
"geometry": {
	"coordinates": [ 135.1883, 48.5283],
	"type": "Point"
},
"properties": {
	"abbrev": "UHHH",
	"featureclass": "Airport",
	"gps_code": "UHHH",
	"iata_code": "UHHH",
	"location": "terminal",
	"name": "Новый",
	"natlscale": 8,
	"scalerank": 10,
	"type": "big",
	"wikipedia": "",
	"addition": {
   	"title": "Новый - UHHH - ГА",
       "id": "419",
       "icon": "ls-green-24.png"
	}
}},

{
"geometry": {
	"coordinates": [ 142.8126, 46.6176],
	"type": "Point"
},
"properties": {
	"abbrev": "UHSJ",
	"featureclass": "Airport",
	"gps_code": "UHSJ",
	"iata_code": "UHSJ",
	"location": "terminal",
	"name": "Пушистый",
	"natlscale": 8,
	"scalerank": 10,
	"type": "small",
	"wikipedia": "",
	"addition": {
   	"title": "Пушистый - UHSJ - ГА",
       "id": "483",
       "icon": "ls-green-24.png"
	}
}},

{
"geometry": {
	"coordinates": [ 142.0005, 47.2895],
	"type": "Point"
},
"properties": {
	"abbrev": "ZA5X",
	"featureclass": "Airport",
	"gps_code": "ZA5X",
	"iata_code": "ZA5X",
	"location": "terminal",
	"name": "Костромское",
	"natlscale": 8,
	"scalerank": 10,
	"type": "small",
	"wikipedia": "",
	"addition": {
   	"title": "Костромское - ZA5X - МО",
       "id": "491",
       "icon": "ls-gray-24.png"
	}
}},

{
"geometry": {
	"coordinates": [ 134.0943, 46.3963],
	"type": "Point"
},
"properties": {
	"abbrev": "UHLA",
	"featureclass": "Airport",
	"gps_code": "UHLA",
	"iata_code": "UHLA",
	"location": "terminal",
	"name": "Ласточка",
	"natlscale": 8,
	"scalerank": 10,
	"type": "small",
	"wikipedia": "",
	"addition": {
   	"title": "Ласточка - UHLA - МО",
       "id": "574",
       "icon": "ls-gray-24.png"
	}
}},

{
"geometry": {
	"coordinates": [ 142.7482, 47.0716],
	"type": "Point"
},
"properties": {
	"abbrev": "XHSA",
	"featureclass": "Airport",
	"gps_code": "XHSA",
	"iata_code": "XHSA",
	"location": "terminal",
	"name": "Новоалександровск",
	"natlscale": 8,
	"scalerank": 10,
	"type": "small",
	"wikipedia": "",
	"addition": {
   	"title": "Новоалександровск - XHSA - МО",
       "id": "701",
       "icon": "ls-gray-24.png"
	}
}},

{
"geometry": {
	"coordinates": [ 135.0887, 47.9977],
	"type": "Point"
},
"properties": {
	"abbrev": "XHHP",
	"featureclass": "Airport",
	"gps_code": "XHHP",
	"iata_code": "XHHP",
	"location": "terminal",
	"name": "Переяславка",
	"natlscale": 8,
	"scalerank": 10,
	"type": "small",
	"wikipedia": "",
	"addition": {
   	"title": "Переяславка - XHHP - МО",
       "id": "842",
       "icon": "ls-gray-24.png"
	}
}},

{
"geometry": {
	"coordinates": [ 142.7681, 47.2622],
	"type": "Point"
},
"properties": {
	"abbrev": "XHSO",
	"featureclass": "Airport",
	"gps_code": "XHSO",
	"iata_code": "XHSO",
	"location": "terminal",
	"name": "Сокол",
	"natlscale": 8,
	"scalerank": 10,
	"type": "small",
	"wikipedia": "",
	"addition": {
   	"title": "Сокол - XHSO - МО",
       "id": "1076",
       "icon": "ls-red-24.png"
	}
}},

{
"geometry": {
	"coordinates": [ 148.3925, 45.3058],
	"type": "Point"
},
"properties": {
	"abbrev": "ZAN1",
	"featureclass": "Airport",
	"gps_code": "ZAN1",
	"iata_code": "ZAN1",
	"location": "terminal",
	"name": "Сопочный",
	"natlscale": 8,
	"scalerank": 10,
	"type": "small",
	"wikipedia": "",
	"addition": {
   	"title": "Сопочный - ZAN1 - МО",
       "id": "1084",
       "icon": "ls-gray-24.png"
	}
}},

{
"geometry": {
	"coordinates": [ 142.7636, 47.1536],
	"type": "Point"
},
"properties": {
	"abbrev": "XHSR",
	"featureclass": "Airport",
	"gps_code": "XHSR",
	"iata_code": "XHSR",
	"location": "terminal",
	"name": "Старорусское",
	"natlscale": 8,
	"scalerank": 10,
	"type": "small",
	"wikipedia": "",
	"addition": {
   	"title": "Старорусское - XHSR - ДОСААФ",
       "id": "1117",
       "icon": "ls-orange-24.png"
	}
}},

{
"geometry": {
	"coordinates": [ 137.1831, 45.4913],
	"type": "Point"
},
"properties": {
	"abbrev": "ZAW3",
	"featureclass": "Airport",
	"gps_code": "ZAW3",
	"iata_code": "ZAW3",
	"location": "terminal",
	"name": "Великая Кема",
	"natlscale": 8,
	"scalerank": 10,
	"type": "small",
	"wikipedia": "",
	"addition": {
   	"title": "Великая Кема - ZAW3 - МО",
       "id": "1285",
       "icon": "ls-gray-24.png"
	}
}},

{
"geometry": {
	"coordinates": [ 148.3114, 45.2511],
	"type": "Point"
},
"properties": {
	"abbrev": "ZAX3",
	"featureclass": "Airport",
	"gps_code": "ZAX3",
	"iata_code": "ZAX3",
	"location": "terminal",
	"name": "Ветровое",
	"natlscale": 8,
	"scalerank": 10,
	"type": "small",
	"wikipedia": "",
	"addition": {
   	"title": "Ветровое - ZAX3 - МО",
       "id": "1303",
       "icon": "ls-gray-24.png"
	}
}},

{
"geometry": {
	"coordinates": [ 142.7173, 46.8855],
	"type": "Point"
},
"properties": {
	"abbrev": "UHSS",
	"featureclass": "Airport",
	"gps_code": "UHSS",
	"iata_code": "UHSS",
	"location": "terminal",
	"name": "Хомутово",
	"natlscale": 8,
	"scalerank": 10,
	"type": "big",
	"wikipedia": "",
	"addition": {
   	"title": "Хомутово - UHSS - ГА",
       "id": "1377",
       "icon": "ls-green-24.png"
	}
}},

{
"geometry": {
	"coordinates": [ 135.1214, 48.62],
	"type": "Point"
},
"properties": {
	"abbrev": "1",
	"featureclass": "Airport",
	"gps_code": "1",
	"iata_code": "1",
	"location": "terminal",
	"name": "Хохлацкая-1",
	"natlscale": 8,
	"scalerank": 10,
	"type": "small",
	"wikipedia": "",
	"addition": {
   	"title": "Хохлацкая-1 - ZB0K - АОН",
       "id": "1829",
       "icon": "ls-blue-24.png"
	}
}},

{
"geometry": {
	"coordinates": [ 138.6581, 47.178],
	"type": "Point"
},
"properties": {
	"abbrev": "UHWE",
	"featureclass": "Airport",
	"gps_code": "UHWE",
	"iata_code": "UHWE",
	"location": "terminal",
	"name": "Единка",
	"natlscale": 8,
	"scalerank": 10,
	"type": "small",
	"wikipedia": "",
	"addition": {
   	"title": "Единка - UHWE - ГА",
       "id": "2827",
       "icon": "ls-green-24.png"
	}
}},

{
"geometry": {
	"coordinates": [ 134.8762, 45.9035],
	"type": "Point"
},
"properties": {
	"abbrev": "UHWR",
	"featureclass": "Airport",
	"gps_code": "UHWR",
	"iata_code": "UHWR",
	"location": "terminal",
	"name": "Рощино",
	"natlscale": 8,
	"scalerank": 10,
	"type": "small",
	"wikipedia": "",
	"addition": {
   	"title": "Рощино - UHWR - ГА",
       "id": "2830",
       "icon": "ls-green-24.png"
	}
}},

{
"geometry": {
	"coordinates": [ 137.5385, 47.1406],
	"type": "Point"
},
"properties": {
	"abbrev": "UHHA",
	"featureclass": "Airport",
	"gps_code": "UHHA",
	"iata_code": "UHHA",
	"location": "terminal",
	"name": "Ада",
	"natlscale": 8,
	"scalerank": 10,
	"type": "small",
	"wikipedia": "",
	"addition": {
   	"title": "Ада - UHHA - ГА",
       "id": "3258",
       "icon": "ls-gray-24.png"
	}
}},

{
"geometry": {
	"coordinates": [ 135.3415, 46.5334],
	"type": "Point"
},
"properties": {
	"abbrev": "UHHL",
	"featureclass": "Airport",
	"gps_code": "UHHL",
	"iata_code": "UHHL",
	"location": "terminal",
	"name": "Олон",
	"natlscale": 8,
	"scalerank": 10,
	"type": "small",
	"wikipedia": "",
	"addition": {
   	"title": "Олон - UHHL - ГА",
       "id": "3262",
       "icon": "ls-gray-24.png"
	}
}},

{
"geometry": {
	"coordinates": [ 136.9557, 46.4946],
	"type": "Point"
},
"properties": {
	"abbrev": "UHHX",
	"featureclass": "Airport",
	"gps_code": "UHHX",
	"iata_code": "UHHX",
	"location": "terminal",
	"name": "Охотничий",
	"natlscale": 8,
	"scalerank": 10,
	"type": "small",
	"wikipedia": "",
	"addition": {
   	"title": "Охотничий - UHHX - ГА",
       "id": "3265",
       "icon": "ls-gray-24.png"
	}
}},

{
"geometry": {
	"coordinates": [ 136.665, 46.6071],
	"type": "Point"
},
"properties": {
	"abbrev": "UHTL",
	"featureclass": "Airport",
	"gps_code": "UHTL",
	"iata_code": "UHTL",
	"location": "terminal",
	"name": "Лаухе",
	"natlscale": 8,
	"scalerank": 10,
	"type": "small",
	"wikipedia": "",
	"addition": {
   	"title": "Лаухе - UHTL - ГА",
       "id": "3288",
       "icon": "ls-gray-24.png"
	}
}},

{
"geometry": {
	"coordinates": [ 137.8966, 46.0924],
	"type": "Point"
},
"properties": {
	"abbrev": "UHTM",
	"featureclass": "Airport",
	"gps_code": "UHTM",
	"iata_code": "UHTM",
	"location": "terminal",
	"name": "Максимовка",
	"natlscale": 8,
	"scalerank": 10,
	"type": "small",
	"wikipedia": "",
	"addition": {
   	"title": "Максимовка - UHTM - ГА",
       "id": "3289",
       "icon": "ls-green-24.png"
	}
}},

{
"geometry": {
	"coordinates": [ 138.7897, 47.2507],
	"type": "Point"
},
"properties": {
	"abbrev": "UHTS",
	"featureclass": "Airport",
	"gps_code": "UHTS",
	"iata_code": "UHTS",
	"location": "terminal",
	"name": "Самарга",
	"natlscale": 8,
	"scalerank": 10,
	"type": "small",
	"wikipedia": "",
	"addition": {
   	"title": "Самарга - UHTS - ГА",
       "id": "3292",
       "icon": "ls-green-24.png"
	}
}},

{
"geometry": {
	"coordinates": [ 138.5914, 47.3481],
	"type": "Point"
},
"properties": {
	"abbrev": "UHTY",
	"featureclass": "Airport",
	"gps_code": "UHTY",
	"iata_code": "UHTY",
	"location": "terminal",
	"name": "Унты",
	"natlscale": 8,
	"scalerank": 10,
	"type": "small",
	"wikipedia": "",
	"addition": {
   	"title": "Унты - UHTY - ГА",
       "id": "3296",
       "icon": "ls-gray-24.png"
	}
}},

{
"geometry": {
	"coordinates": [ 138.369, 47.5973],
	"type": "Point"
},
"properties": {
	"abbrev": "UHTZ",
	"featureclass": "Airport",
	"gps_code": "UHTZ",
	"iata_code": "UHTZ",
	"location": "terminal",
	"name": "Агзу",
	"natlscale": 8,
	"scalerank": 10,
	"type": "small",
	"wikipedia": "",
	"addition": {
   	"title": "Агзу - UHTZ - ГА",
       "id": "3297",
       "icon": "ls-green-24.png"
	}
}},

{
"geometry": {
	"coordinates": [ 138.3218, 46.5418],
	"type": "Point"
},
"properties": {
	"abbrev": "UHTQ",
	"featureclass": "Airport",
	"gps_code": "UHTQ",
	"iata_code": "UHTQ",
	"location": "terminal",
	"name": "Светлая",
	"natlscale": 8,
	"scalerank": 10,
	"type": "small",
	"wikipedia": "",
	"addition": {
   	"title": "Светлая - UHTQ - ГА",
       "id": "3298",
       "icon": "ls-green-24.png"
	}
}},

{
"geometry": {
	"coordinates": [ 135.7884, 46.402],
	"type": "Point"
},